City_ID,City,Lat,Lng,Max Temp,Humidity,Cloudiness,Wind Speed,Country,Date
0,puerto natales,-51.7236,-72.4875,6.689999999999998,90,99,1.61,CL,1697585751
1,aginskoye,51.1,114.53,1.3500000000000227,76,77,6.39,RU,1697585752
2,adamstown,-25.066,-130.1015,22.52000000000004,85,100,4.18,PN,1697585753
3,blackmans bay,-43.0167,147.3167,16.960000000000036,53,34,0.89,AU,1697585753
4,avarua,-21.2078,-159.775,25.03000000000003,61,54,7.2,CK,1697585754
5,utrik,11.2278,169.8474,27.470000000000027,82,45,7.1,MH,1697585754
6,puerto baquerizo moreno,-0.9,-89.6,25.55000000000001,83,20,3.6,EC,1697585755
7,kerikeri,-35.2268,173.9474,19.390000000000043,88,100,0.89,NZ,1697585756
8,waitangi,-43.9535,-176.5597,12.680000000000007,70,48,2.68,NZ,1697585756
9,kasongo-lunda,-6.4667,16.8167,21.25,98,95,1.07,CD,1697585757
10,dudinka,69.4058,86.1778,-0.17999999999994998,98,100,2.68,RU,1697585758
11,west island,-12.1568,96.8225,25.99000000000001,83,40,6.69,CC,1697585744
12,roxas,11.5853,122.7511,26.189999999999998,73,76,5.01,PH,1697585759
13,san andres,12.5847,-81.7006,29.010000000000048,84,40,4.12,CO,1697585760
14,camana,-16.6228,-72.7111,19.160000000000025,87,47,2.13,PE,1697585760
15,tolanaro,-25.0319,46.9987,22.04000000000002,94,75,5.14,MG,1697585761
16,georgetown,5.4112,100.3354,27.189999999999998,95,20,1.54,MY,1697585726
17,taitung city,22.7583,121.1444,23.150000000000034,94,75,2.57,TW,1697585762
18,konarka,19.9,86.1167,24.220000000000027,77,38,1.4,IN,1697585763
19,iskateley,67.6803,53.1512,1.1200000000000045,89,100,4.02,RU,1697585764
20,grytviken,-54.2811,-36.5092,0.8000000000000114,80,78,3.43,GS,1697585764
21,turabah,21.2141,41.6331,23.400000000000034,46,0,2.55,SA,1697585765
22,siwa oasis,29.2041,25.5195,22.480000000000018,57,0,2.3,EG,1697585766
23,zaragoza,41.6561,-0.8773,20.57000000000005,71,0,5.66,ES,1697585767
24,lebu,-37.6167,-73.65,10.760000000000048,89,0,5.33,CL,1697585768
25,vorgashor,67.5833,63.95,1.75,96,100,4.59,RU,1697585768
26,tindouf,27.6711,-8.1474,26.25,25,0,4.12,DZ,1697585769
27,margaret river,-33.95,115.0667,16.74000000000001,64,68,4.36,AU,1697585770
28,vorkuta,67.5,64.0,2.0300000000000296,95,100,4.39,RU,1697585771
29,yellowknife,62.456,-114.3525,2.2900000000000205,100,100,3.6,CA,1697585478
30,freetown,8.484,-13.2299,25.160000000000025,85,100,2.22,SL,1697585772
31,sao paulo de olivenca,-3.3783,-68.8725,26.53000000000003,72,66,0.19,BR,1697585773
32,isafjordur,66.0755,-23.124,6.439999999999998,93,96,5.45,IS,1697585774
33,al bayda',32.7627,21.7551,19.220000000000027,73,0,4.37,LY,1697585775
34,andergrove,-21.0833,149.1833,26.470000000000027,67,100,5.85,AU,1697585775
35,saint-pierre,-21.3393,55.4781,22.82000000000005,78,0,2.06,RE,1697585776
36,anadyr,64.75,177.4833,-5.71999999999997,73,63,7.0,RU,1697585777
37,ushuaia,-54.8,-68.3,11.810000000000002,86,20,6.17,AR,1697585650
38,vanino,49.0869,140.2543,4.960000000000036,73,14,2.22,RU,1697585778
39,constantia,44.1833,28.65,10.390000000000043,63,100,3.86,RO,1697585729
40,i-n-salah,27.1935,2.4607,26.700000000000045,17,36,2.7,DZ,1697585779
41,sigli,5.3848,95.9609,24.390000000000043,87,100,1.32,ID,1697585780
42,punta arenas,-53.15,-70.9167,10.060000000000002,66,75,7.2,CL,1697585692
43,fort mcmurray,56.7268,-111.381,10.770000000000039,66,0,4.63,CA,1697585206
44,tazovsky,67.4667,78.7,3.9500000000000455,98,100,6.26,RU,1697585782
45,brisas de zicatela,15.8369,-97.0419,30.29000000000002,54,40,2.57,MX,1697585782
46,jamestown,42.097,-79.2353,9.770000000000039,87,100,2.57,US,1697585623
47,tuzha,57.6062,47.936,2.57000000000005,93,100,6.95,RU,1697585784
48,egilsstadir,65.2653,-14.3948,5.9500000000000455,75,75,1.54,IS,1697585784
49,port-aux-francais,-49.35,70.2167,2.1899999999999977,77,91,7.06,TF,1697585785
50,klaksvik,62.2266,-6.589,8.510000000000048,88,100,7.7,FO,1697585786
51,broken hill,-31.95,141.4333,20.260000000000048,25,0,5.2,AU,1697585786
52,puerto ayora,-0.7393,-90.3518,24.75,91,83,2.68,EC,1697585787
53,bengkulu,-3.8004,102.2655,24.090000000000032,86,90,1.4,ID,1697585788
54,samana,19.2056,-69.3369,28.980000000000018,87,9,3.36,DO,1697585788
55,tiksi,71.6872,128.8694,-15.70999999999998,100,100,1.25,RU,1697585789
56,la passe,45.5549,-0.8967,20.129999999999995,79,95,10.41,FR,1697585790
57,taroa,8.7058,171.2275,28.090000000000032,76,51,2.2,MH,1697585790
58,bethel,41.3712,-73.414,13.930000000000007,79,100,0.0,US,1697585791
59,richards bay,-28.783,32.0377,16.600000000000023,93,72,1.78,ZA,1697585792
60,karaton,-6.3424,106.1045,26.110000000000014,70,50,0.22,ID,1697585793
61,edinburgh of the seven seas,-37.0676,-12.3116,12.710000000000036,75,100,6.2,SH,1697585793
62,bemidji,47.4736,-94.8803,14.939999999999998,60,75,4.12,US,1697585586
63,kavieng,-2.5744,150.7967,28.400000000000034,71,68,1.41,PG,1697585794
64,port alfred,-33.5906,26.891,15.100000000000023,92,0,1.93,ZA,1697585795
65,nsanje,-16.92,35.262,21.77000000000004,95,100,0.27,MW,1697585796
66,nishinoomote,30.7333,131.0,22.310000000000002,78,20,1.54,JP,1697585797
67,soncino,45.4001,9.8698,13.700000000000045,69,100,2.27,IT,1697585797
68,bulayevo,54.9056,70.4439,9.220000000000027,76,24,3.91,KZ,1697585798
69,sampit,-2.5333,112.95,27.02000000000004,78,59,1.54,ID,1697585799
70,itaituba,-4.2761,-55.9836,24.140000000000043,87,84,1.08,BR,1697585799
71,saipan,15.1355,145.701,28.390000000000043,89,20,4.12,MP,1697585800
72,new norfolk,-42.7826,147.0587,17.620000000000005,32,35,1.47,AU,1697585801
73,pontianak,-0.0333,109.3333,24.99000000000001,94,75,1.54,ID,1697585802
74,san patricio,28.017,-97.5169,24.400000000000034,41,0,3.83,US,1697585802
75,bredasdorp,-34.5322,20.0403,14.230000000000018,92,0,1.04,ZA,1697585803
76,charters towers,-20.1,146.2667,22.629999999999995,67,63,6.86,AU,1697585804
77,gobabis,-22.45,18.9667,17.170000000000016,19,3,4.88,NA,1697585804
78,alenquer,-1.9417,-54.7383,24.670000000000016,86,85,1.56,BR,1697585805
79,portland,45.5234,-122.6762,20.060000000000002,72,75,4.12,US,1697585542
80,bilibino,68.0546,166.4372,-15.019999999999982,96,100,1.5,RU,1697585806
81,glendive,47.1053,-104.7125,12.32000000000005,81,100,5.14,US,1697585807
82,whitehorse,60.7161,-135.0538,10.430000000000007,73,75,3.6,CA,1697585808
83,atafu village,-8.5421,-172.5159,28.430000000000007,73,99,2.75,TK,1697585809
84,ribeira brava,32.65,-17.0667,23.350000000000023,76,86,3.71,PT,1697585810
85,svetlyy,54.675,20.1347,10.200000000000045,62,100,9.1,RU,1697585810
86,albany,42.6001,-73.9662,12.180000000000007,80,95,1.72,US,1697585131
87,sinop,41.7711,34.8709,11.900000000000034,74,100,10.59,TR,1697585812
88,le port,-20.9373,55.2919,23.0,91,86,6.3,RE,1697585813
89,catia la mar,10.6038,-67.0303,31.110000000000014,62,75,2.57,VE,1697585814
90,hermanus,-34.4187,19.2345,15.689999999999998,91,0,2.45,ZA,1697585814
91,qaqortoq,60.7167,-46.0333,-0.7899999999999636,48,4,8.18,GL,1697585815
92,afaahiti,-17.75,-149.2833,26.930000000000007,81,95,8.22,PF,1697585816
93,ludvika,60.1496,15.1878,5.890000000000043,77,46,4.41,SE,1697585816
94,parun,35.4207,70.9221,1.8100000000000023,77,42,4.56,AF,1697585817
95,murs-erigne,47.4,-0.55,19.460000000000036,79,90,6.57,FR,1697585818
96,nouadhibou,20.931,-17.0347,23.99000000000001,73,5,7.2,MR,1697585819
97,grajewo,53.6473,22.4554,4.470000000000027,71,100,5.06,PL,1697585819
98,aykhal,66.0,111.5,-11.069999999999993,93,97,4.92,RU,1697585820
99,nelson bay,-32.7167,152.15,20.560000000000002,58,88,3.13,AU,1697585820
100,barra de santo antonio,-9.4047,-35.5072,23.600000000000023,80,91,4.47,BR,1697585821
101,hithadhoo,-0.6,73.0833,27.29000000000002,76,11,5.99,MV,1697585822
102,northam,51.0333,-4.2167,14.03000000000003,82,100,10.4,GB,1697585822
103,sitka,57.0531,-135.33,13.939999999999998,54,100,9.26,US,1697585823
104,norrtalje,59.758,18.705,6.710000000000036,90,98,2.6,SE,1697585824
105,soio,-6.1349,12.3689,25.230000000000018,85,88,4.49,AO,1697585825
106,brookings,44.3114,-96.7984,19.189999999999998,48,0,5.14,US,1697585557
107,turbat,26.0023,63.044,25.640000000000043,79,8,1.44,PK,1697585826
108,cestos city,5.46,-9.5828,26.100000000000023,83,84,2.46,LR,1697585827
109,tekeli,44.83,78.8239,10.180000000000007,16,0,2.41,KZ,1697585828
110,luderitz,-26.6481,15.1594,14.240000000000009,88,4,6.49,NA,1697585828
111,aweil,8.7682,27.4002,23.29000000000002,83,100,1.59,SS,1697585829
112,crane,31.3974,-102.3501,24.090000000000032,26,0,7.37,US,1697585830
113,haiku-pauwela,20.9219,-156.3051,30.010000000000048,48,0,3.6,US,1697585831
114,khandyga,62.6667,135.6,-5.8700000000000045,75,100,1.08,RU,1697585832
115,xianning,29.8833,114.2167,20.49000000000001,61,0,1.67,CN,1697585832
116,inarajan village,13.2736,144.7484,30.220000000000027,91,100,5.34,GU,1697585833
117,talnakh,69.4865,88.3972,-1.5499999999999545,96,100,7.39,RU,1697585834
118,saint-francois,46.4154,3.9054,16.689999999999998,74,0,5.14,FR,1697585588
119,davlekanovo,54.2215,55.0343,4.840000000000032,75,53,5.09,RU,1697585835
120,thompson,55.7435,-97.8558,11.090000000000032,71,40,2.57,CA,1697585836
121,prince rupert,54.3161,-130.3201,12.050000000000011,91,100,18.01,CA,1697585837
122,malanje,-9.5402,16.341,18.83000000000004,95,65,2.37,AO,1697585617
123,puerto el triunfo,13.2833,-88.55,31.510000000000048,73,92,2.07,SV,1697585838
124,san rafael del norte,13.2125,-86.1106,24.28000000000003,78,75,0.0,NI,1697585839
125,kodiak,57.79,-152.4072,8.730000000000018,87,100,5.14,US,1697585840
126,mount gambier,-37.8333,140.7667,18.99000000000001,43,4,2.82,AU,1697585840
127,san luis de la loma,17.2706,-100.8939,26.27000000000004,90,100,1.84,MX,1697585841
128,antsiranana,-12.2787,49.2917,22.879999999999995,85,8,4.71,MG,1697585842
129,codrington,-38.2667,141.9667,18.680000000000007,48,0,3.79,AU,1697585842
130,kununurra,-15.7667,128.7333,26.99000000000001,39,1,0.0,AU,1697585843
131,pontinia,41.4109,13.0441,19.30000000000001,89,95,1.33,IT,1697585844
132,oranjemund,-28.55,16.4333,17.220000000000027,80,0,2.94,NA,1697585844
133,cold lake,54.4502,-110.2017,10.970000000000027,87,75,3.6,CA,1697585845
134,alice springs,-23.7,133.8833,21.75,15,0,5.66,AU,1697585694
135,atherton,53.5237,-2.4935,11.270000000000039,82,100,1.34,GB,1697585693
136,komatsushimacho,34.0,134.5833,15.980000000000018,77,0,4.12,JP,1697585847
137,lihue,21.9789,-159.3672,27.77000000000004,67,100,4.12,US,1697585847
138,stanley,54.868,-1.6985,9.870000000000005,90,20,2.57,GB,1697585848
139,lompoc,34.6391,-120.4579,29.450000000000045,77,75,7.6,US,1697585849
140,salekhard,66.53,66.6019,1.6899999999999977,100,100,1.85,RU,1697585849
141,nagqu,31.5,92.0,-3.849999999999966,91,100,2.12,CN,1697585850
142,suarez,2.954,-76.6964,20.860000000000014,96,88,1.38,CO,1697585851
143,ancud,-41.8697,-73.8203,9.660000000000025,84,44,1.3,CL,1697585852
144,hasaki,35.7333,140.8333,19.05000000000001,59,93,4.26,JP,1697585853
145,kidal,18.4411,1.4078,30.450000000000045,23,49,3.62,ML,1697585853
146,ruidoso,33.3317,-105.673,23.08000000000004,17,0,4.12,US,1697585854
147,santa ana,33.7456,-117.8678,34.370000000000005,57,20,3.6,US,1697585855
148,sulecin,52.4443,15.1168,5.010000000000048,75,4,1.04,PL,1697585855
149,greenland,43.0362,-70.8328,12.810000000000002,89,100,1.54,US,1697585689
150,kayangel,8.0823,134.7173,27.930000000000007,75,19,0.36,PW,1697585858
151,bel ombre,-4.6167,55.4167,26.910000000000025,89,20,3.09,SC,1697585858
152,cabo san lucas,22.8909,-109.9124,34.23000000000002,51,0,2.06,MX,1697585859
153,ouarzazat,30.9189,-6.8934,22.160000000000025,33,20,2.57,MA,1697585860
154,pyay,18.8167,95.2167,23.420000000000016,94,41,0.11,MM,1697585861
155,tual,-5.6667,132.75,27.230000000000018,77,84,6.62,ID,1697585861
156,papatowai,-46.5619,169.4708,16.29000000000002,46,74,5.23,NZ,1697585862
157,sao gabriel da cachoeira,-0.1303,-67.0892,24.140000000000043,87,62,0.22,BR,1697585863
158,castillos,-34.1667,-53.8333,8.910000000000025,81,6,3.98,UY,1697585863
159,iqaluit,63.7506,-68.5145,-2.1499999999999773,74,75,1.54,CA,1697585864
160,nanzhang chengguanzhen,31.7839,111.8275,20.28000000000003,66,19,0.89,CN,1697585865
161,kiunga,-6.1219,141.2906,23.629999999999995,99,100,0.71,PG,1697585866
162,darende,38.5458,37.5058,12.860000000000014,63,22,0.58,TR,1697585866
163,karratha,-20.7377,116.8463,31.129999999999995,17,0,3.06,AU,1697585867
164,kizel,59.0471,57.6477,4.810000000000002,57,91,3.13,RU,1697585868
165,arkhangel'sk,64.5401,40.5433,3.9600000000000364,78,100,4.31,RU,1697585869
166,paita,-5.0892,-81.1144,20.75,82,27,7.41,PE,1697585869
167,itoman,26.1247,127.6694,24.010000000000048,57,20,3.09,JP,1697585870
168,yelan',50.949,43.7378,2.3600000000000136,71,6,5.49,RU,1697585870
169,nar'yan-mar,67.6713,53.087,1.170000000000016,89,100,4.02,RU,1697585871
170,walvis bay,-22.9575,14.5053,15.050000000000011,88,52,4.12,NA,1697585872
171,badger,64.8,-147.5333,1.8700000000000045,83,40,2.06,US,1697585872
172,okhotsk,59.3833,143.3,-8.259999999999991,71,42,2.63,RU,1697585873
173,kuala tungkal,-0.8167,103.4667,25.710000000000036,79,100,1.69,ID,1697585874
174,kone,-21.0595,164.8658,26.060000000000002,70,52,3.72,NC,1697585874
175,pisco,-13.7,-76.2167,19.03000000000003,88,0,7.72,PE,1697585875
176,ilulissat,69.2167,-51.1,-9.989999999999952,67,100,2.06,GL,1697585876
177,sainte-menehould,49.0833,4.9,9.939999999999998,60,100,5.63,FR,1697585876
178,preobrazheniye,42.9019,133.9064,9.689999999999998,51,72,3.58,RU,1697585877
179,pangoa,-12.1167,-73.0,20.840000000000032,99,95,1.3,PE,1697585878
180,mil'kovo,55.6078,37.7956,4.080000000000041,86,98,6.13,RU,1697585878
181,sabang,5.8933,95.3214,27.400000000000034,75,99,7.22,ID,1697585879
182,pan de azucar,-34.8,-55.2333,10.980000000000018,68,40,7.2,UY,1697585880
183,lichinga,-13.3128,35.2406,18.05000000000001,94,40,6.69,MZ,1697585880
184,touros,-5.1989,-35.4608,25.29000000000002,76,40,7.76,BR,1697585847
185,vilyuchinsk,52.9306,158.4028,7.180000000000007,97,100,2.25,RU,1697585881
186,high rock,26.6208,-78.2833,23.010000000000048,62,19,5.66,BS,1697585882
187,aasiaat,68.7098,-52.8699,-17.149999999999977,85,25,2.1,GL,1697585883
188,salmon arm,50.6998,-119.3024,15.620000000000005,50,89,2.57,CA,1697585715
189,tobelo,1.7284,128.0095,28.100000000000023,77,24,2.15,ID,1697585728
190,santander,43.4647,-3.8044,25.170000000000016,62,0,9.26,ES,1697585885
191,cabedelo,-6.9811,-34.8339,24.370000000000005,73,72,6.86,BR,1697585886
192,klyuchi,52.2667,79.1667,7.650000000000034,52,28,3.28,RU,1697585886
193,weno,7.4515,151.8468,29.970000000000027,84,100,2.06,FM,1697585887
194,port elizabeth,-33.918,25.5701,15.170000000000016,95,0,1.54,ZA,1697585888
195,chonchi,-42.6128,-73.8092,12.560000000000002,91,70,1.35,CL,1697585888
196,lackland air force base,29.3866,-98.618,26.04000000000002,26,0,3.09,US,1697585707
197,ma'rib,15.4591,45.3253,22.28000000000003,24,0,3.35,YE,1697585890
198,huarmey,-10.0681,-78.1522,20.129999999999995,84,51,4.34,PE,1697585890
199,crescent city,41.756,-124.2018,20.58000000000004,92,100,3.6,US,1697585891
200,garissa,-0.4536,39.6401,26.28000000000003,74,61,5.67,KE,1697585892
201,igarka,67.4667,86.5833,0.30000000000001137,92,100,8.13,RU,1697585892
202,uusikaupunki,60.8004,21.4084,5.490000000000009,86,100,3.71,FI,1697585893
203,mejit,10.2753,170.8646,27.79000000000002,76,67,4.04,MH,1697585894
204,praia da vitoria,38.7333,-27.0667,22.140000000000043,83,40,5.15,PT,1697585894
205,uturoa,-16.7333,-151.4333,26.02000000000004,82,95,6.91,PF,1697585895
206,prado,-17.3411,-39.2208,23.620000000000005,83,17,4.14,BR,1697585896
207,newman,37.3138,-121.0208,29.189999999999998,68,1,3.13,US,1697585896
208,laguna,38.421,-121.4238,31.160000000000025,38,0,6.69,US,1697585897
209,camarinas,43.1311,-9.1817,18.99000000000001,90,100,13.73,ES,1697585898
210,port isabel,26.0734,-97.2086,25.02000000000004,55,0,4.63,US,1697585898
211,hawaiian paradise park,19.5933,-154.9731,28.730000000000018,74,75,5.14,US,1697585900
212,bontang,0.1333,117.5,27.620000000000005,77,88,2.28,ID,1697585900
213,hadibu,12.65,54.0333,27.710000000000036,71,5,2.77,YE,1697585901
214,san antonio de pale,-1.4014,5.6325,25.29000000000002,81,53,3.54,GQ,1697585902
215,smithers,54.7804,-127.1743,8.180000000000007,87,100,3.09,CA,1697585902
216,kingman,35.1894,-114.053,32.879999999999995,9,0,3.6,US,1697585903
217,fortaleza,-3.7227,-38.5247,28.370000000000005,75,40,6.69,BR,1697585700
218,mossel bay,-34.1831,22.146,16.930000000000007,83,0,2.42,ZA,1697585904
219,saudarkrokur,65.7461,-19.6394,4.420000000000016,89,100,4.29,IS,1697585905
220,las tablas,7.7667,-80.2833,25.379999999999995,90,100,3.6,PA,1697585906
221,utete,-7.986,38.758,22.590000000000032,95,61,0.66,TZ,1697585906
222,tulare,36.2666,-118.8009,24.840000000000032,40,0,1.34,US,1697585767
223,neiafu,-18.65,-173.9833,27.379999999999995,65,20,8.23,TO,1697585908
224,pak phanang,8.3511,100.202,26.010000000000048,87,100,2.74,TH,1697585908
225,vernon,50.2581,-119.2691,15.890000000000043,49,82,1.54,CA,1697585627
226,ola,59.5833,151.2833,-1.9899999999999523,39,0,3.99,RU,1697585910
227,sinabang,2.4803,96.3801,25.480000000000018,86,100,1.96,ID,1697585910
228,naze,28.3667,129.4833,20.510000000000048,56,0,2.74,JP,1697585911
229,kokopo,-4.352,152.2633,28.900000000000034,66,99,0.7,PG,1697585912
230,longyearbyen,78.2186,15.6401,-5.089999999999975,58,40,4.12,SJ,1697585912
231,udachny,66.4167,112.4,-9.75,85,87,4.86,RU,1697585913
232,yeraliyev,43.2,51.65,10.520000000000039,61,83,4.15,KZ,1697585914
233,saint-denis,48.9167,2.3333,12.879999999999995,74,0,4.12,FR,1697585914
234,meleuz,52.9667,55.9167,7.270000000000039,58,100,5.06,RU,1697585915
235,port lincoln,-34.7333,135.8667,19.83000000000004,48,1,4.23,AU,1697585915
236,novyy buh,47.6931,32.5216,5.3700000000000045,63,88,1.17,UA,1697585916
237,pacasmayo,-7.4006,-79.5714,20.470000000000027,81,40,6.32,PE,1697585917
238,port hedland,-20.3167,118.5667,28.03000000000003,16,0,2.06,AU,1697585917
239,tilaran,10.4703,-84.9671,23.370000000000005,94,98,2.96,CR,1697585918
240,saint-joseph,-21.3667,55.6167,22.210000000000036,81,93,0.22,RE,1697585919
241,hun,29.1268,15.9477,22.210000000000036,26,20,2.62,LY,1697585919
242,wailua homesteads,22.0669,-159.378,27.439999999999998,67,100,4.12,US,1697585920
243,kavaratti,10.5669,72.642,27.920000000000016,75,92,1.67,IN,1697585921
244,fale old settlement,-9.3852,-171.2468,28.24000000000001,74,50,3.1,TK,1697585922
245,silver springs,29.1044,-82.0206,18.29000000000002,68,0,1.62,US,1697585923
246,olonkinbyen,70.9221,-8.7187,0.5400000000000205,75,100,2.51,SJ,1697585923
247,aral,40.5156,81.2636,12.0,32,43,2.81,CN,1697585925
248,greytown,-29.0642,30.5928,8.140000000000043,97,5,0.19,ZA,1697585925
249,invercargill,-46.4,168.35,15.010000000000048,60,90,4.47,NZ,1697585926
250,sisimiut,66.9395,-53.6735,-6.409999999999968,76,91,4.03,GL,1697585927
251,lucapa,-8.4192,20.7447,19.52000000000004,95,100,1.29,AO,1697585927
252,port mathurin,-19.6833,63.4167,23.720000000000027,83,16,4.18,MU,1697585928
253,medina,24.4686,39.6142,29.24000000000001,18,0,2.57,SA,1697585888
254,cannonvale,-20.2833,148.7,23.660000000000025,55,84,6.49,AU,1697585929
255,dryden,49.7833,-92.7503,13.160000000000025,58,75,3.6,CA,1697585930
256,farafangana,-22.8167,47.8333,23.100000000000023,93,100,1.03,MG,1697585931
257,jackson,42.4165,-122.8345,23.900000000000034,50,0,1.54,US,1697585692
258,ribeira grande,38.5167,-28.7,21.54000000000002,95,100,8.49,PT,1697585932
259,kourou,5.1552,-52.6478,26.03000000000003,82,13,3.15,GF,1697585933
260,st. john's,47.5649,-52.7093,5.439999999999998,90,100,2.57,CA,1697585732
261,lerwick,60.1545,-1.1494,8.0,85,100,4.2,GB,1697585934
262,remire-montjoly,4.9167,-52.2667,26.02000000000004,83,0,1.54,GF,1697585935
263,cleveland,41.4995,-81.6954,11.260000000000048,85,100,2.57,US,1697585496
264,vadso,70.0744,29.7487,0.4900000000000091,80,40,7.2,NO,1697585936
265,keflavik,64.0049,-22.5624,10.950000000000045,93,100,15.95,IS,1697585937
266,wynyard,-41.0,145.7167,17.360000000000014,42,12,2.18,AU,1697585938
267,san juan de miraflores,-12.1629,-76.9635,21.210000000000036,77,77,3.21,PE,1697585938
268,callao,-12.0667,-77.15,22.07000000000005,73,20,7.2,PE,1697585939
269,vila franca do campo,37.7167,-25.4333,21.05000000000001,99,85,5.4,PT,1697585939
270,bandarbeyla,9.4942,50.8122,26.160000000000025,84,19,1.99,SO,1697585940
271,midvagur,62.0511,-7.1939,8.460000000000036,100,100,7.2,FO,1697585941
272,minas de marcona,-15.2119,-75.1103,18.27000000000004,73,17,2.74,PE,1697585941
273,launceston,-41.45,147.1667,15.800000000000011,58,17,4.63,AU,1697585942
274,mhangura,-16.8939,30.1683,17.860000000000014,84,38,3.57,ZW,1697585943
275,burabay,53.0838,70.3138,8.700000000000045,79,8,3.44,KZ,1697585944
276,howard springs,-12.497,131.047,31.57000000000005,39,43,1.86,AU,1697585944
277,turpan,42.9333,89.1667,11.560000000000002,27,1,0.68,CN,1697585945
278,maintirano,-18.0667,44.0167,25.160000000000025,86,40,0.71,MG,1697585945
279,ozu,33.5,132.55,23.24000000000001,66,0,0.66,JP,1697585946
280,tashtagol,52.7657,87.8894,3.4600000000000364,91,18,1.17,RU,1697585947
281,sosnogorsk,63.6023,53.8817,7.520000000000039,76,100,4.47,RU,1697585947
282,las heras,-46.5419,-68.9359,16.890000000000043,33,87,6.33,AR,1697585948
283,ebebiyin,2.1511,11.3353,20.720000000000027,99,100,0.25,GQ,1697585949
284,carutapera,-1.195,-46.02,27.670000000000016,76,82,6.26,BR,1697585949
285,el abiodh sidi cheikh,32.893,0.5484,19.700000000000045,29,3,2.09,DZ,1697585950
286,kotabumi,-4.8333,104.9,26.390000000000043,53,94,2.37,ID,1697585951
287,timmins,48.4669,-81.3331,6.900000000000034,76,20,1.03,CA,1697585700
288,winnemucca,40.973,-117.7357,24.03000000000003,23,0,3.6,US,1697585952
289,winslow,35.0242,-110.6974,30.100000000000023,15,0,2.06,US,1697585953
290,ocean city,39.2776,-74.5746,14.430000000000007,80,77,1.85,US,1697585780
291,bodo,67.28,14.405,1.5400000000000205,93,40,2.06,NO,1697585954
292,howrah,22.5892,88.3103,26.0,83,20,0.0,IN,1697585955
293,ketchikan,55.3422,-131.6461,11.990000000000009,87,100,8.75,US,1697585956
294,harper,4.375,-7.7169,24.930000000000007,88,31,1.83,LR,1697585956
295,palmer,42.1584,-72.3287,12.470000000000027,79,75,0.0,US,1697585920
296,maudaha,25.6833,80.1167,22.720000000000027,69,1,0.78,IN,1697585958
297,prineville,44.2999,-120.8345,23.400000000000034,31,0,2.57,US,1697585958
298,nguigmi,14.2495,13.1092,30.590000000000032,24,99,4.73,NE,1697585960
299,colonia,50.9333,6.95,7.939999999999998,80,0,2.57,DE,1697585715
300,labrador city,52.9463,-66.9114,2.9500000000000455,75,100,4.63,CA,1697585961
301,carauari,-4.8828,-66.8958,25.32000000000005,82,84,0.6,BR,1697585962
302,kirakira,-10.4544,161.9205,29.230000000000018,63,100,2.62,SB,1697585963
303,college,64.8569,-147.8028,1.920000000000016,82,75,2.06,US,1697585964
304,loango,-4.6719,11.8312,25.04000000000002,81,100,2.96,CG,1697585964
305,l'isle-sur-la-sorgue,43.9167,5.05,18.82000000000005,63,100,4.12,FR,1697585965
306,tavricheskoye,54.5851,73.6395,11.54000000000002,79,7,3.25,RU,1697585966
307,neukirch/lausitz,51.0973,14.3079,5.75,82,7,1.97,DE,1697585966
308,iyidere,41.0119,40.3619,13.980000000000018,81,69,1.92,TR,1697585967
309,tangalle,6.024,80.7911,24.629999999999995,91,100,2.65,LK,1697585968
310,coquimbo,-29.9533,-71.3436,14.850000000000023,77,75,3.6,CL,1697585968
311,tamaqua,40.7973,-75.9694,12.430000000000007,87,100,0.0,US,1697585969
312,enewetak,11.3474,162.3373,28.52000000000004,77,97,7.1,MH,1697585970
313,tarifa,36.0139,-5.607,23.010000000000048,88,36,7.16,ES,1697585970
314,mukalla,14.5425,49.1242,24.200000000000045,77,2,0.46,YE,1697585971
315,susuman,62.7833,148.1667,-17.22999999999999,73,19,0.89,RU,1697585972
316,hamilton,39.1834,-84.5333,12.629999999999995,73,75,3.09,US,1697585972
317,topeka,39.0483,-95.678,21.879999999999995,36,0,4.12,US,1697585973
318,selfoss,63.9331,-20.9971,10.020000000000039,88,100,11.57,IS,1697585974
319,katabu,-4.9333,122.5167,29.460000000000036,58,12,2.42,ID,1697585974
320,saldanha,-33.0117,17.9442,15.03000000000003,92,2,5.24,ZA,1697585975
321,pitimbu,-7.4706,-34.8086,24.33000000000004,74,67,5.93,BR,1697585976
322,sarkand,45.41,79.9186,8.53000000000003,29,0,0.92,KZ,1697585976
323,tralee,52.2704,-9.7026,12.950000000000045,88,100,12.21,IE,1697585977
324,tura,25.5198,90.2201,19.02000000000004,91,0,1.08,IN,1697585978
325,al jubayl,27.0112,49.6583,29.25,57,5,5.25,SA,1697585978
326,mezhdurechenskiy,59.6,65.9333,11.840000000000032,73,0,4.47,RU,1697585979
327,rio grande,-32.035,-52.0986,14.060000000000002,75,56,4.7,BR,1697585980
328,el nido,11.1858,119.3956,28.660000000000025,78,59,6.95,PH,1697585802
329,celestun,20.8667,-90.4,25.0,59,39,5.45,MX,1697585983
330,pahrump,36.2083,-115.9839,31.950000000000045,10,14,2.24,US,1697585729
331,baotou,40.6522,109.8222,8.270000000000039,31,28,2.57,CN,1697585985
332,ulsteinvik,62.3432,5.8487,8.200000000000045,91,85,1.34,NO,1697585977
333,flying fish cove,-10.4217,105.6791,25.82000000000005,88,75,4.12,CX,1697585986
334,batang,-6.4846,110.7083,28.340000000000032,63,88,2.01,ID,1697585987
335,saint-philippe,-21.3585,55.7679,22.77000000000004,74,93,2.21,RE,1697585987
336,antonio enes,-16.2325,39.9086,24.710000000000036,79,98,1.63,MZ,1697585988
337,taki,22.5861,88.9214,25.970000000000027,74,2,0.69,IN,1697585989
338,yass,-34.8333,148.9167,19.810000000000002,68,0,1.79,AU,1697585989
339,rawah,34.4816,41.9093,21.350000000000023,45,0,1.92,IQ,1697585990
340,hammerfest,70.6634,23.6821,-1.75,100,20,1.03,NO,1697585990
341,kolwezi,-10.7148,25.4667,17.05000000000001,84,100,0.91,CD,1697585991
342,yujing,23.1249,120.4614,27.590000000000032,82,100,0.94,TW,1697585992
343,suntar,62.1444,117.6319,-1.589999999999975,93,98,1.79,RU,1697585992
344,marco island,25.9363,-81.7157,22.0,43,0,3.09,US,1697585993
345,amurzet,47.6967,131.0981,7.730000000000018,38,100,0.47,RU,1697585994
346,mont-dore,-22.2833,166.5833,25.0,99,83,5.01,NC,1697585994
347,bambanglipuro,-7.95,110.2833,25.57000000000005,76,87,0.93,ID,1697585995
348,juruti,-2.1522,-56.0922,28.83000000000004,63,51,1.08,BR,1697585996
349,dickinson,29.4608,-95.0513,23.05000000000001,63,0,4.63,US,1697585703
350,holualoa,19.6228,-155.9522,28.210000000000036,72,20,3.6,US,1697585997
351,seme,15.1942,-12.9448,30.600000000000023,50,6,6.73,SN,1697585998
352,yarmouth,41.7057,-70.2286,12.760000000000048,90,0,0.89,US,1697585998
353,buka,40.8108,69.1986,13.200000000000045,33,84,1.88,UZ,1697585999
354,anatuya,-28.4606,-62.8347,20.370000000000005,43,100,2.2,AR,1697586000
355,ikirun,7.9167,4.6667,21.680000000000007,95,90,1.23,NG,1697586000
356,uliastay,47.7417,96.8444,-2.2099999999999795,42,42,0.87,MN,1697586001
357,impfondo,1.6381,18.0667,22.010000000000048,99,98,0.11,CG,1697586003
358,gordonvale,-17.0936,145.7842,28.840000000000032,65,92,3.06,AU,1697586003
359,mahina,-17.5065,-149.489,27.870000000000005,69,75,10.8,PF,1697585851
360,nurota,40.5614,65.6886,15.720000000000027,25,100,1.35,UZ,1697586005
361,shenkursk,62.1091,42.896,4.410000000000025,68,100,1.79,RU,1697586005
362,urangan,-25.3,152.9,22.600000000000023,55,29,8.12,AU,1697586006
363,corvallis,44.5646,-123.262,20.610000000000014,75,0,0.0,US,1697585786
364,tres arroyos,-38.3739,-60.2798,8.430000000000007,54,0,4.08,AR,1697586007
365,langepas,61.2544,75.2124,6.670000000000016,95,28,4.11,RU,1697586008
366,mount pearl,47.5166,-52.7813,4.980000000000018,90,100,2.57,CA,1697586009
367,beli manastir,45.77,18.6036,6.660000000000025,44,100,1.61,HR,1697586009
368,cidreira,-30.1811,-50.2056,15.730000000000018,79,100,5.84,BR,1697586010
369,selibaby,15.159,-12.1829,30.160000000000025,56,47,4.19,MR,1697586011
370,sumbawa besar,-8.5,117.4333,29.850000000000023,46,38,2.9,ID,1697586012
371,dien bien phu,21.3833,103.0167,20.55000000000001,89,83,0.71,VN,1697586012
372,broome,42.2506,-75.833,11.490000000000009,89,100,0.45,US,1697586013
373,as sulayyil,20.4607,45.5779,24.140000000000043,18,0,3.18,SA,1697586014
374,kaitong,44.8135,123.15,11.510000000000048,34,100,3.3,CN,1697586014
375,el prat de llobregat,41.3278,2.0947,22.30000000000001,81,40,2.06,ES,1697586015
376,sandnessjoen,66.0217,12.6316,4.1200000000000045,70,40,1.54,NO,1697586016
377,lamu,-2.2717,40.902,27.120000000000005,89,100,5.15,KE,1697586016
378,klintsy,52.7602,32.2393,5.490000000000009,70,72,6.41,RU,1697586017
379,thayetmyo,19.3167,95.1833,23.370000000000005,93,21,0.25,MM,1697586018
380,harrismith,-28.2728,29.1295,7.4500000000000455,94,9,1.14,ZA,1697586018
381,tubarjal,30.4999,38.216,21.08000000000004,41,0,2.16,SA,1697586019
382,khark,29.2614,50.3306,29.439999999999998,53,69,9.0,IR,1697586020
383,kenai,60.5544,-151.2583,11.03000000000003,56,0,3.09,US,1697586020
384,longford,53.7333,-7.8,9.480000000000018,94,100,7.66,IE,1697586021
385,marsabit,2.3284,37.9899,22.600000000000023,56,66,5.01,KE,1697586022
386,goz beida,13.95,20.55,29.160000000000025,18,12,4.27,TD,1697586022
387,nizhyn,51.048,31.8869,3.5300000000000296,71,15,3.92,UA,1697586023
388,greenville,35.6127,-77.3663,16.180000000000007,78,100,0.0,US,1697585840
389,gutierrez zamora,20.45,-97.0833,25.900000000000034,73,33,2.14,MX,1697586024
390,ad dabbah,18.05,30.95,25.170000000000016,18,35,4.39,SD,1697586025
391,moussoro,13.6408,16.4901,32.23000000000002,16,36,5.72,TD,1697586025
392,toamasina,-18.1667,49.3833,23.0,94,20,2.06,MG,1697586026
393,hotan,37.0997,79.9269,10.620000000000005,32,96,2.44,CN,1697586027
394,kruisfontein,-34.0033,24.7314,16.610000000000014,61,0,3.18,ZA,1697586028
395,geraldton,-28.7667,114.6,17.230000000000018,77,7,4.63,AU,1697586028
396,bubaque,11.2833,-15.8333,27.629999999999995,79,38,3.85,GW,1697586029
397,aljezur,37.3191,-8.8033,20.720000000000027,84,69,7.89,PT,1697586030
398,ewo,-0.8725,14.8206,22.200000000000045,95,100,1.43,CG,1697586030
399,mount isa,-20.7333,139.5,28.870000000000005,14,0,5.14,AU,1697586031
400,siyabuswa,-25.1132,29.0445,16.160000000000025,61,0,5.38,ZA,1697586031
401,okha,53.5739,142.9478,6.7900000000000205,88,100,3.8,RU,1697586032
402,foindu,7.4108,-11.5422,22.860000000000014,97,97,0.79,SL,1697586033
403,ust-nera,64.5667,143.2,-15.229999999999961,85,88,1.21,RU,1697586034
404,road town,18.4167,-64.6167,29.05000000000001,74,40,2.06,VG,1697585994
405,margate,51.3813,1.3862,12.170000000000016,72,100,3.58,GB,1697586036
406,nova sintra,14.8667,-24.7167,25.600000000000023,71,0,3.42,CV,1697586037
407,perry,37.2506,-83.1999,13.100000000000023,71,77,1.0,US,1697586037
408,yerofey pavlovich,53.9667,121.9667,-0.6200000000000045,85,90,0.97,RU,1697586038
409,wuhan,30.5833,114.2667,19.05000000000001,56,1,2.11,CN,1697586038
410,mingguang,32.7802,117.9638,19.29000000000002,65,10,3.97,CN,1697586039
411,queenstown,-31.8976,26.8753,11.5,78,0,0.94,ZA,1697586001
412,ghat,24.9647,10.1728,26.200000000000045,21,59,2.0,LY,1697586041
413,dubai,25.2582,55.3047,30.960000000000036,58,0,2.06,AE,1697585807
414,makakilo city,21.3469,-158.0858,31.180000000000007,67,20,5.66,US,1697586042
415,xianju,28.85,120.7333,17.49000000000001,76,0,1.72,CN,1697586043
416,ferkessedougou,9.6,-5.2,24.129999999999995,85,43,1.9,CI,1697586044
417,guerrero negro,27.9769,-114.0611,22.77000000000004,65,16,7.6,MX,1697586045
418,alo,7.4178,6.7371,23.49000000000001,92,86,0.75,NG,1697586046
419,lorengau,-2.0226,147.2712,29.760000000000048,64,54,1.73,PG,1697586046
420,viedma,-40.8135,-62.9967,12.660000000000025,50,2,4.5,AR,1697586047
421,statesboro,32.4488,-81.7832,16.379999999999995,72,0,0.0,US,1697586048
422,myitkyina,25.3833,97.4,20.450000000000045,84,5,1.03,MM,1697586048
423,waghai,20.7667,73.4833,23.710000000000036,67,3,1.08,IN,1697586049
424,laojunmiao,39.8333,97.7333,-0.4199999999999591,81,100,2.29,CN,1697586050
425,namdrik,5.5994,168.1028,28.360000000000014,69,8,1.19,MH,1697586050
426,coahuayana de hidalgo,18.7,-103.6583,26.470000000000027,92,100,1.23,MX,1697586051
427,rongelap,11.1635,166.8941,28.32000000000005,76,54,5.7,MH,1697586052
428,midar,34.9403,-3.5331,18.58000000000004,57,41,1.98,MA,1697586052
429,mitu,1.1983,-70.1733,26.090000000000032,75,94,1.67,CO,1697586053
430,fort bragg,35.139,-79.006,17.170000000000016,73,100,0.0,US,1697586054
431,tevriz,57.509,72.4042,7.720000000000027,86,33,2.88,RU,1697586055
432,nicoya,10.1483,-85.452,25.230000000000018,89,98,1.29,CR,1697586055
433,fort-shevchenko,44.5086,50.263,13.189999999999998,54,45,4.36,KZ,1697586056
434,sittwe,20.15,92.9,24.420000000000016,87,2,2.41,MM,1697586057
435,kapuskasing,49.4169,-82.4331,9.050000000000011,76,20,1.54,CA,1697586057
436,leh,34.1667,77.5833,1.9800000000000182,62,97,1.38,IN,1697586058
437,thaba nchu,-29.2093,26.839,10.970000000000027,72,0,4.52,ZA,1697586059
438,tazacorte,28.629,-17.9293,23.54000000000002,79,75,1.79,ES,1697586060
439,dhulikhel,27.6189,85.5529,13.75,80,4,0.84,NP,1697586060
440,kitee,62.1,30.15,5.1200000000000045,89,94,3.08,FI,1697586061
441,abancay,-13.6339,-72.8814,16.920000000000016,78,80,2.55,PE,1697585958
442,chos malal,-37.3781,-70.2709,19.0,25,0,2.57,AR,1697586062
443,benghazi,32.1167,20.0667,23.890000000000043,61,0,0.21,LY,1697585885
444,usogorsk,63.4106,48.6872,3.150000000000034,87,100,3.4,RU,1697586064
445,kapa'a,22.0752,-159.319,28.180000000000007,67,100,4.12,US,1697586064
446,ostrov,57.3439,28.3537,7.3700000000000045,66,100,1.22,RU,1697586065
447,takoradi,4.8845,-1.7554,24.400000000000034,91,60,2.36,GH,1697586066
448,kovdor,67.5662,30.4758,-6.889999999999986,97,65,1.93,RU,1697586067
449,acapulco de juarez,16.8634,-99.8901,28.900000000000034,79,100,4.12,MX,1697585867
450,wenxing,28.6667,112.8833,21.220000000000027,57,0,2.87,CN,1697586068
451,surgana,20.5667,73.6167,21.480000000000018,62,4,1.68,IN,1697586069
452,yoichi,43.2039,140.7703,14.32000000000005,63,29,3.11,JP,1697586069
453,saint-tropez,43.2693,6.6398,18.900000000000034,81,100,7.08,FR,1697586070
454,riberalta,-10.9833,-66.1,29.5,53,80,1.17,BO,1697586071
455,eyl,7.9803,49.8164,26.590000000000032,83,26,1.63,SO,1697586071
456,tarawa,1.419,172.984,30.05000000000001,79,75,5.66,KI,1697586072
457,priozersk,61.0393,30.1291,5.060000000000002,83,94,4.21,RU,1697586073
458,bamboo flat,11.7,92.7167,26.05000000000001,94,75,0.0,IN,1697586073
459,zouerate,22.7187,-12.4521,29.879999999999995,21,35,3.13,MR,1697586074
460,dhandhuka,22.3667,71.9833,27.310000000000002,51,0,2.05,IN,1697586075
461,puerto aysen,-45.4,-72.7,8.28000000000003,98,88,1.51,CL,1697586075
462,illizi,26.4833,8.4667,27.890000000000043,22,92,2.71,DZ,1697586076
463,petropavlovsk-kamchatsky,53.0452,158.6483,6.360000000000014,88,75,4.0,RU,1697586077
464,aleksandrov gay,50.147,48.5704,4.720000000000027,59,1,5.45,RU,1697586077
465,al 'aziziyah,32.9058,45.0616,23.310000000000002,37,0,1.75,IQ,1697586078
466,voss,60.623,6.4229,5.850000000000023,98,55,1.72,NO,1697586079
467,dalandzadgad,43.5708,104.425,4.03000000000003,26,2,1.51,MN,1697586079
468,antigo,45.1402,-89.1523,13.400000000000034,81,0,0.0,US,1697586080
469,dergachi,51.2328,48.7659,3.8100000000000023,75,9,5.9,RU,1697586081
470,lubang,13.8584,120.124,28.180000000000007,77,36,9.86,PH,1697586081
471,polewali,-3.4324,119.3435,29.340000000000032,69,55,1.11,ID,1697586082
472,bangassou,4.7413,22.8184,20.04000000000002,97,25,0.92,CF,1697586083
473,belyy yar,53.6039,91.3903,6.939999999999998,87,75,1.0,RU,1697586083
474,post,33.1909,-101.3782,23.110000000000014,27,0,5.14,US,1697586084
475,chilca,-12.5211,-76.7372,18.160000000000025,92,63,3.49,PE,1697586085
476,hitachi,36.6,140.65,17.03000000000003,79,7,0.69,JP,1697586085
477,mili,6.0815,171.735,28.350000000000023,70,50,0.99,MH,1697586086
478,ardestan,33.3761,52.3694,16.30000000000001,34,0,1.45,IR,1697586087
479,dainava (kaunas),54.9152,23.9683,8.0,71,100,4.12,LT,1697586087
480,east london,-33.0153,27.9116,15.520000000000039,84,0,3.91,ZA,1697586088
481,island harbour,50.724,-1.2758,13.900000000000034,82,100,5.36,GB,1697586089
482,hirara,24.8,125.2833,24.920000000000016,64,75,4.12,JP,1697586089
483,cambria,35.5641,-121.0808,32.410000000000025,58,10,4.87,US,1697586090
484,kijang,35.2442,129.2139,10.850000000000023,43,34,0.93,KR,1697586091
485,souillac,-20.5167,57.5167,23.210000000000036,94,40,0.51,MU,1697586092
486,silver city,32.7701,-108.2803,25.980000000000018,31,0,4.12,US,1697585798
487,undurkhaan,47.3194,110.6556,2.160000000000025,41,72,3.12,MN,1697586093
488,la romana,18.4273,-68.9728,28.200000000000045,83,40,0.0,DO,1697586094
489,barah,13.7,30.3667,27.460000000000036,16,60,5.66,SD,1697586094
490,necochea,-38.5473,-58.7368,6.100000000000023,69,0,2.38,AR,1697586095
491,arraial do cabo,-22.9661,-42.0278,23.450000000000045,88,90,0.28,BR,1697586096
492,stalowa wola,50.5829,22.0533,3.740000000000009,71,10,1.97,PL,1697586096
493,itapecuru mirim,-3.3925,-44.3586,24.689999999999998,88,98,2.9,BR,1697585932
494,hadejia,12.4498,10.0444,28.420000000000016,35,92,2.3,NG,1697586098
495,belmonte,-15.8631,-38.8828,21.200000000000045,87,8,0.99,BR,1697586098
496,punta umbria,37.1821,-6.9661,22.400000000000034,76,82,6.88,ES,1697586099
497,yeniseysk,58.4497,92.1703,6.080000000000041,70,98,2.24,RU,1697586100
498,san fernando,15.0286,120.6898,25.850000000000023,81,56,0.88,PH,1697586101
499,horta,38.5333,-28.6333,21.120000000000005,95,97,8.49,PT,1697586102
500,gubat,12.9206,124.1231,27.590000000000032,78,86,2.16,PH,1697586103
501,gembu,6.7,11.2667,16.58000000000004,92,99,1.31,NG,1697586103
502,la punta,-33.1837,-66.3127,17.060000000000002,25,4,4.7,AR,1697586104
503,tromso,69.6496,18.957,-1.9899999999999523,80,0,1.54,NO,1697586105
504,roma,43.2128,-75.4557,12.200000000000045,80,100,2.57,US,1697586065
505,sultanah,24.4926,39.5857,29.25,18,0,2.57,SA,1697586107
506,emerald,-23.5333,148.1667,23.52000000000004,53,25,7.25,AU,1697586103
507,uttarkashi,30.7333,78.45,11.510000000000048,63,2,2.84,IN,1697586109
508,ujae,8.9322,165.7642,28.420000000000016,75,33,4.53,MH,1697586110
509,sodra sandby,56.5667,16.6167,9.379999999999995,86,90,5.42,SE,1697586110
510,nuku'alofa,-21.1333,-175.2,25.189999999999998,65,20,8.75,TO,1697586111
511,minot,48.2325,-101.2963,19.120000000000005,59,0,0.0,US,1697586112
512,am timan,11.0297,20.2827,24.660000000000025,62,10,1.05,TD,1697586112
513,balykchy,42.4557,76.1861,9.330000000000041,89,99,1.5,KG,1697586113
514,mormugao,15.4,73.8,24.590000000000032,94,40,2.06,IN,1697586114
515,kangding,30.0513,101.9603,9.810000000000002,88,77,1.92,CN,1697586114
516,chernyshevskiy,63.0128,112.4714,-6.089999999999975,98,75,1.33,RU,1697586115
517,aden,12.7794,45.0367,27.32000000000005,68,4,5.1,YE,1697586116
518,terbanggi besar,-4.8667,105.2333,26.160000000000025,69,93,2.95,ID,1697586116
519,lata,40.1629,-8.3327,20.450000000000045,92,100,5.58,PT,1697586117
520,fortuna,40.5982,-124.1573,18.850000000000023,91,0,4.63,US,1697585942
521,flin flon,54.7682,-101.865,13.910000000000025,62,75,2.06,CA,1697586119
522,novi vinodolski,45.1281,14.7889,11.800000000000011,81,0,0.0,HR,1697586119
523,nowshahr,36.649,51.496,16.970000000000027,94,100,1.03,IR,1697586120
524,pervomayskiy,53.2485,40.2871,4.8700000000000045,74,90,7.09,RU,1697586121
525,al qusayr,34.5091,36.5798,16.930000000000007,88,0,2.37,SY,1697586121
526,korsholm,63.1142,21.6822,3.2700000000000387,97,0,2.24,FI,1697586122
527,revda,56.801,59.9303,5.520000000000039,70,100,4.94,RU,1697586123
528,taoudenni,22.6783,-3.9836,31.260000000000048,14,0,4.13,ML,1697586123
529,kristiansund,63.1115,7.732,6.03000000000003,93,100,0.0,NO,1697586124
530,puerto maldonado,-12.6,-69.1833,27.220000000000027,78,0,0.0,PE,1697586125
531,micheweni,-4.9667,39.8333,26.53000000000003,85,100,3.69,TZ,1697586125
532,chicoana,-25.1009,-65.5331,16.140000000000043,79,97,1.47,AR,1697586126
533,taro,-8.3862,115.28,22.0,62,74,1.58,ID,1697586127
534,mar del plata,-38.0023,-57.5575,10.53000000000003,69,0,1.03,AR,1697586127
535,santyoku,37.4406,129.1708,15.939999999999998,53,72,2.93,KR,1697586128
536,greymouth,-42.4667,171.2,11.550000000000011,78,65,0.86,NZ,1697586129
537,namibe,-15.1961,12.1522,18.08000000000004,83,50,3.03,AO,1697586130
538,black point,-34.6187,137.8972,22.77000000000004,23,0,4.44,AU,1697586130
539,abaza,52.655,90.0928,5.860000000000014,92,97,1.16,RU,1697586131
540,lethbridge,49.7,-112.8186,15.450000000000045,44,40,10.8,CA,1697586132
541,magistral'nyy,56.1725,107.4458,1.8700000000000045,79,100,1.93,RU,1697586132
542,as salamiyah,35.0113,37.0532,17.430000000000007,82,1,1.94,SY,1697586133
543,acopiara,-6.0953,-39.4525,27.629999999999995,30,100,1.82,BR,1697586134
544,santo tome,-31.6627,-60.7653,20.010000000000048,34,70,4.47,AR,1697586134
545,shache,38.4167,77.2406,11.460000000000036,31,90,2.68,CN,1697586135
546,port antonio,18.18,-76.4612,30.950000000000045,80,49,3.24,JM,1697586136
547,sirte,31.2089,16.5887,23.24000000000001,51,0,4.91,LY,1697586136
548,kargasok,59.0556,80.8572,8.870000000000005,92,40,3.13,RU,1697586137
549,altamira,-3.2033,-52.2064,27.05000000000001,83,0,0.0,BR,1697585844
550,vangaindrano,-23.35,47.6,21.640000000000043,96,100,2.27,MG,1697586138
551,gainesville,29.6516,-82.3248,16.720000000000027,72,0,2.16,US,1697585863
552,benin city,6.335,5.6275,22.57000000000005,95,49,0.96,NG,1697586019
553,hinganghat,20.5667,78.8333,22.210000000000036,78,38,2.45,IN,1697586140
554,daru,-9.0763,143.2092,27.07000000000005,80,81,4.26,PG,1697586141
555,ocean shores,46.9737,-124.1563,14.450000000000045,96,100,3.58,US,1697586087
556,el granada,37.5027,-122.4694,27.730000000000018,78,100,8.23,US,1697586142
557,qamdo,31.1667,97.2333,-2.2199999999999704,63,3,1.92,CN,1697586143
558,zarah sharan,33.1467,68.7917,7.460000000000036,58,14,1.53,AF,1697586144
559,chita,52.0333,113.55,-1.1299999999999955,92,40,3.0,RU,1697586144
560,kavalerovo,44.2661,135.0572,9.189999999999998,49,91,0.45,RU,1697586145
561,hoa binh,20.8133,105.3383,23.180000000000007,80,100,0.91,VN,1697586146
562,shahr-e babak,30.1165,55.1186,15.590000000000032,44,0,3.5,IR,1697586147
563,nova vicosa,-17.8919,-39.3719,23.54000000000002,81,45,4.24,BR,1697586147
564,sibay,52.7181,58.6658,7.340000000000032,76,86,5.81,RU,1697586148
565,alta sierra,35.7291,-118.5495,20.439999999999998,44,0,1.63,US,1697586149
566,la libertad,-2.2333,-80.9,25.810000000000002,73,75,3.6,EC,1697586149
567,sevilla,37.3824,-5.9761,21.060000000000002,92,20,4.63,ES,1697585855
568,misasi,-3.0,33.0833,23.27000000000004,67,100,2.06,TZ,1697586151
569,la ronge,55.1001,-105.2842,14.140000000000043,47,75,3.6,CA,1697586151
570,carolina beach,34.0352,-77.8936,16.120000000000005,71,37,0.05,US,1697586152
571,burao,9.5221,45.5336,23.189999999999998,59,17,0.42,SO,1697586153
572,nova olimpia,-14.7972,-57.2881,32.910000000000025,27,86,1.28,BR,1697586154
573,thames,-37.1333,175.5333,18.860000000000014,76,71,2.89,NZ,1697586154
574,camacupa,-12.0167,17.4833,18.960000000000036,73,99,1.82,AO,1697586155
575,milazzo,38.2212,15.2383,22.54000000000002,85,86,1.79,IT,1697586156
576,palikir - national government center,6.9248,158.1611,31.410000000000025,70,75,2.57,FM,1697586156
577,stettler,52.3168,-112.7186,11.53000000000003,76,43,8.23,CA,1697586157
578,nyrob,60.733,56.7202,4.650000000000034,68,78,7.6,RU,1697586158
579,san luis del palmar,-27.5079,-58.5545,20.970000000000027,85,100,6.85,AR,1697586158
580,jalalaqsi,3.3766,45.5996,26.200000000000045,78,85,5.53,SO,1697586159
581,luwuk,-0.9516,122.7875,30.05000000000001,59,6,0.57,ID,1697586160
582,ciudad bolivar,8.1222,-63.5497,29.400000000000034,59,60,5.87,VE,1697586160
583,mammoth lakes,37.6485,-118.9721,20.400000000000034,16,0,3.6,US,1697586161
584,basoko,1.2391,23.616,23.379999999999995,84,36,1.49,CD,1697586162
585,dhidhdhoo,6.8833,73.1,28.180000000000007,73,69,2.61,MV,1697586162
586,la mira tumbiscatio,18.6833,-102.2833,25.220000000000027,85,100,0.1,MX,1697586163
587,sijunjung,-0.6876,100.9537,24.200000000000045,78,100,0.42,ID,1697586164
588,mossoro,-5.1875,-37.3442,25.54000000000002,73,100,6.77,BR,1697586165
