City_ID,City,Lat,Lng,Max Temp,Humidity,Cloudiness,Wind Speed,Country,Date
0,avarua,-21.2078,-159.775,23.03000000000003,64,75,5.14,CK,1697416131
1,heihe,50.2441,127.4902,2.32000000000005,42,8,8.61,CN,1697416131
2,bethel,41.3712,-73.414,11.470000000000027,79,100,2.06,US,1697416132
3,mukalla,14.5425,49.1242,26.05000000000001,80,77,1.19,YE,1697416132
4,albany,42.6001,-73.9662,9.760000000000048,81,99,2.24,US,1697415857
5,olonkinbyen,70.9221,-8.7187,0.34000000000003183,70,98,3.45,SJ,1697416133
6,bikenibeu village,1.3673,173.1241,28.129999999999995,72,100,3.4,KI,1697416133
7,port-aux-francais,-49.35,70.2167,1.410000000000025,70,100,11.22,TF,1697416133
8,bua yai,15.5855,102.4259,22.5,85,97,2.81,TH,1697416133
9,edinburgh of the seven seas,-37.0676,-12.3116,11.770000000000039,69,77,11.85,SH,1697416134
10,badger,64.8,-147.5333,5.6299999999999955,89,0,0.0,US,1697416134
11,yellowknife,62.456,-114.3525,8.560000000000002,97,75,4.12,CA,1697415880
12,ponta pora,-22.5361,-55.7256,26.950000000000045,57,0,3.6,BR,1697416134
13,papatowai,-46.5619,169.4708,12.03000000000003,59,92,4.03,NZ,1697416094
14,broken hill,-31.95,141.4333,15.230000000000018,55,53,8.79,AU,1697416135
15,shakawe,-18.3667,21.85,26.439999999999998,46,100,4.98,BW,1697416135
16,vorgashor,67.5833,63.95,-0.8199999999999932,98,100,5.81,RU,1697416135
17,waitangi,-43.9535,-176.5597,13.79000000000002,67,4,4.02,NZ,1697416136
18,talnakh,69.4865,88.3972,-9.329999999999984,92,29,1.13,RU,1697416136
19,anadyr,64.75,177.4833,2.2800000000000296,87,75,2.0,RU,1697416136
20,nabire,-3.3667,135.4833,29.129999999999995,70,33,0.51,ID,1697416136
21,ilulissat,69.2167,-51.1,-5.989999999999952,86,100,9.26,GL,1697416137
22,mhamid,29.82,-5.72,25.720000000000027,22,78,1.28,MA,1697416137
23,urangan,-25.3,152.9,23.02000000000004,73,7,6.62,AU,1697416137
24,selfoss,63.9331,-20.9971,6.140000000000043,92,100,4.41,IS,1697416138
25,stanley,54.868,-1.6985,3.6200000000000045,92,0,4.12,GB,1697415990
26,st martin,50.3698,-4.4473,7.640000000000043,87,100,6.26,GB,1697416138
27,pisco,-13.7,-76.2167,19.03000000000003,88,0,6.17,PE,1697416138
28,west island,-12.1568,96.8225,24.99000000000001,78,40,4.63,CC,1697416139
29,jamestown,42.097,-79.2353,7.770000000000039,98,100,3.6,US,1697416114
30,puerto armuelles,8.2833,-82.8667,27.870000000000005,78,100,3.13,PA,1697416139
31,artem,43.3675,132.1986,10.900000000000034,31,0,4.02,RU,1697416139
32,ta`u,-14.2336,-169.5144,26.460000000000036,78,58,8.52,AS,1697416140
33,luganville,-15.5333,167.1667,27.620000000000005,79,71,5.17,VU,1697416140
34,hamilton,39.1834,-84.5333,11.160000000000025,68,62,1.34,US,1697416140
35,adamstown,-25.066,-130.1015,22.07000000000005,79,59,2.48,PN,1697416140
36,portland,45.5234,-122.6762,21.170000000000016,74,100,1.54,US,1697415997
37,ust-nera,64.5667,143.2,-16.549999999999955,99,79,1.79,RU,1697416141
38,lamu,-2.2717,40.902,27.120000000000005,90,67,3.87,KE,1697416141
39,mazagao,-0.115,-51.2894,30.03000000000003,72,84,3.52,BR,1697416142
40,sao gabriel da cachoeira,-0.1303,-67.0892,22.99000000000001,98,99,1.0,BR,1697416142
41,hasaki,35.7333,140.8333,21.27000000000004,57,0,2.32,JP,1697416142
42,yarmouth,41.7057,-70.2286,13.870000000000005,76,40,8.49,US,1697415945
43,ulaangom,49.9811,92.0667,4.590000000000032,56,100,1.03,MN,1697416143
44,wailua homesteads,22.0669,-159.378,30.24000000000001,64,75,8.23,US,1697416143
45,blackmans bay,-43.0167,147.3167,13.07000000000005,63,38,2.68,AU,1697416143
46,rawah,34.4816,41.9093,22.24000000000001,46,0,4.35,IQ,1697416144
47,margaret river,-33.95,115.0667,19.420000000000016,51,100,5.3,AU,1697416080
48,grytviken,-54.2811,-36.5092,0.36000000000001364,88,79,4.87,GS,1697416144
49,enewetak,11.3474,162.3373,28.590000000000032,76,99,5.14,MH,1697416144
50,kirensk,57.7853,108.1119,5.57000000000005,95,100,3.58,RU,1697416145
51,puerto natales,-51.7236,-72.4875,4.300000000000011,93,57,3.47,CL,1697416145
52,jinchang,38.4953,102.1739,11.100000000000023,21,26,0.75,CN,1697416145
53,waddan,29.1614,16.139,20.960000000000036,43,0,2.96,LY,1697416146
54,longyearbyen,78.2186,15.6401,-1.089999999999975,69,75,7.2,SJ,1697416146
55,iqaluit,63.7506,-68.5145,-2.1499999999999773,74,75,2.57,CA,1697416146
56,fuxin,42.0156,121.6589,8.75,24,0,2.89,CN,1697416146
57,rosetta,31.4044,30.4164,23.160000000000025,63,6,4.74,EG,1697416147
58,korla,41.7597,86.1469,12.53000000000003,34,38,4.84,CN,1697416147
59,quellon,-43.1167,-73.6167,7.78000000000003,89,86,2.49,CL,1697416147
60,kodiak,57.79,-152.4072,8.730000000000018,93,100,6.69,US,1697416148
61,carlsbad,33.1581,-117.3506,32.410000000000025,67,0,4.12,US,1697416093
62,hailar,49.2,119.7,1.5400000000000205,35,75,2.25,CN,1697416148
63,chonchi,-42.6128,-73.8092,8.560000000000002,96,66,1.14,CL,1697416148
64,pingliang,35.5392,106.6861,11.020000000000039,67,2,1.7,CN,1697416149
65,yaren,-0.5472,166.916,28.670000000000016,71,59,0.33,NR,1697416149
66,taro,-8.3862,115.28,24.0,60,48,1.25,ID,1697416149
67,nuuk,64.1835,-51.7216,-0.6599999999999682,74,20,3.6,GL,1697416149
68,port alfred,-33.5906,26.891,17.32000000000005,94,100,3.13,ZA,1697416150
69,college,64.8569,-147.8028,5.670000000000016,90,75,0.0,US,1697416150
70,kribi,2.95,9.9167,25.439999999999998,89,95,2.41,CM,1697416150
71,tazovsky,67.4667,78.7,1.3500000000000227,98,100,2.06,RU,1697416151
72,puerto ayora,-0.7393,-90.3518,24.75,87,96,1.34,EC,1697416151
73,qaqortoq,60.7167,-46.0333,2.480000000000018,91,94,1.05,GL,1697416151
74,barre,44.197,-72.5021,8.970000000000027,90,100,2.57,US,1697416151
75,carazinho,-28.2839,-52.7864,20.689999999999998,94,17,3.7,BR,1697416152
76,port lincoln,-34.7333,135.8667,13.590000000000032,61,57,7.24,AU,1697416150
77,kone,-21.0595,164.8658,27.680000000000007,60,90,3.67,NC,1697416152
78,port macquarie,-31.4333,152.9167,33.27000000000004,34,14,1.62,AU,1697416020
79,hawaiian paradise park,19.5933,-154.9731,30.02000000000004,71,0,4.12,US,1697416153
80,kerema,-7.9631,145.7785,26.99000000000001,82,100,0.82,PG,1697416153
81,ebon,4.582,168.6964,28.870000000000005,73,98,5.07,MH,1697416153
82,saint-louis,16.3333,-15.0,33.85000000000002,14,6,2.25,SN,1697416154
83,sinabang,2.4803,96.3801,25.360000000000014,88,97,2.79,ID,1697416154
84,balykshi,47.0667,51.8667,10.0,76,0,7.0,KZ,1697416154
85,adrar,20.5022,-10.0711,27.560000000000002,15,1,3.24,MR,1697416154
86,lompoc,34.6391,-120.4579,27.230000000000018,74,0,5.81,US,1697416155
87,mokwa,9.2833,5.05,25.77000000000004,75,88,1.48,NG,1697416155
88,saipan,15.1355,145.701,28.390000000000043,89,40,2.06,MP,1697416155
89,peterhead,57.5058,-1.7981,5.220000000000027,86,93,6.08,GB,1697416039
90,gevrai,19.2667,75.75,24.210000000000036,54,73,1.55,IN,1697416156
91,mudgee,-32.5943,149.5871,20.99000000000001,38,4,6.17,AU,1697416098
92,maharajgani,26.1167,84.4833,22.760000000000048,78,5,1.58,IN,1697416156
93,mossel bay,-34.1831,22.146,15.960000000000036,89,8,0.07,ZA,1697416156
94,atafu village,-8.5421,-172.5159,27.920000000000016,78,82,7.78,TK,1697416157
95,whitehorse,60.7161,-135.0538,9.430000000000007,67,20,6.71,CA,1697416157
96,bilibino,68.0546,166.4372,-10.579999999999984,94,99,0.27,RU,1697416157
97,hotan,37.0997,79.9269,14.080000000000041,26,100,1.68,CN,1697416157
98,nantucket,41.2835,-70.0995,11.110000000000014,81,0,2.57,US,1697416158
99,kemijarvi,66.7131,27.4306,0.6500000000000341,99,100,2.55,FI,1697416158
100,khouribga,32.9333,-6.6,19.970000000000027,41,87,1.4,MA,1697416158
101,fada,9.5667,8.3,20.610000000000014,94,76,0.83,NG,1697416159
102,hermanus,-34.4187,19.2345,16.730000000000018,83,38,5.77,ZA,1697416159
103,port elizabeth,-33.918,25.5701,17.160000000000025,97,75,4.63,ZA,1697416159
104,isafjordur,66.0755,-23.124,2.7800000000000296,98,100,4.9,IS,1697416159
105,porbandar,21.6422,69.6093,25.75,79,0,2.11,IN,1697416160
106,kerikeri,-35.2268,173.9474,20.03000000000003,53,10,4.14,NZ,1697416160
107,kabompo,-13.5927,24.2008,19.310000000000002,74,74,1.58,ZM,1697416160
108,udachny,66.4167,112.4,-4.75,92,100,5.02,RU,1697416161
109,devarkonda,16.7,78.9333,23.700000000000045,83,90,2.01,IN,1697416161
110,saldanha,-33.0117,17.9442,16.03000000000003,81,0,3.39,ZA,1697416161
111,magadan,59.5667,150.8,3.6299999999999955,66,100,1.34,RU,1697416162
112,sidney,-33.8679,151.2073,25.180000000000007,39,40,5.14,AU,1697416113
113,lihue,21.9789,-159.3672,30.58000000000004,64,75,8.23,US,1697416162
114,bredasdorp,-34.5322,20.0403,15.620000000000005,96,45,2.47,ZA,1697416162
115,as suwayq,23.8494,57.4386,27.629999999999995,74,1,0.6,OM,1697416163
116,lebu,-37.6167,-73.65,9.960000000000036,72,3,8.14,CL,1697416163
117,al hayy,32.1735,46.0433,28.010000000000048,24,28,5.33,IQ,1697416163
118,utrik,11.2278,169.8474,28.25,76,60,5.45,MH,1697416164
119,minas de marcona,-15.2119,-75.1103,15.439999999999998,79,37,4.53,PE,1697416164
120,vila franca do campo,37.7167,-25.4333,21.600000000000023,99,99,12.35,PT,1697416164
121,qina,26.1642,32.7267,23.28000000000003,37,1,3.12,EG,1697416164
122,nemuro,43.3236,145.575,14.350000000000023,73,100,5.66,JP,1697416165
123,alice springs,-23.7,133.8833,24.75,20,75,7.72,AU,1697416165
124,ushuaia,-54.8,-68.3,4.810000000000002,65,40,11.18,AR,1697416165
125,sydney mines,46.2367,-60.2177,14.0,91,100,4.63,CA,1697416166
126,zaozersk,69.4005,32.4476,4.060000000000002,94,99,9.79,RU,1697416166
127,beyla,8.6833,-8.6333,20.460000000000036,94,100,0.92,GN,1697416166
128,punta arenas,-53.15,-70.9167,6.060000000000002,70,40,8.23,CL,1697416166
129,pacific grove,36.6177,-121.9166,25.30000000000001,81,0,2.68,US,1697416057
130,ventspils,57.3894,21.5606,9.960000000000036,57,20,5.66,LV,1697416167
131,hobyo,5.3505,48.5268,27.170000000000016,80,31,4.76,SO,1697416167
132,port saint john's,-31.6229,29.5448,18.260000000000048,91,100,6.03,ZA,1697416168
133,conceicao da barra,-18.5933,-39.7322,24.260000000000048,85,27,1.96,BR,1697416149
134,kimovsk,53.9716,38.5319,10.460000000000036,88,100,1.21,RU,1697416168
135,aginskoye,51.1,114.53,1.2100000000000364,58,73,1.97,RU,1697416169
136,goroka,-6.0834,145.3873,19.05000000000001,85,100,0.58,PG,1697416169
137,kontcha,7.9667,12.2333,21.480000000000018,92,72,1.67,CM,1697416170
138,fale old settlement,-9.3852,-171.2468,28.379999999999995,73,28,9.06,TK,1697416171
139,cestos city,5.46,-9.5828,25.77000000000004,88,100,2.95,LR,1697416171
140,sitka,57.0531,-135.33,12.939999999999998,88,75,1.54,US,1697416171
141,codrington,-38.2667,141.9667,12.54000000000002,51,95,10.16,AU,1697416171
142,shingu,33.7333,135.9833,20.600000000000023,61,0,2.21,JP,1697416172
143,carnarvon,-24.8667,113.6333,29.870000000000005,24,3,8.22,AU,1697416172
144,port mathurin,-19.6833,63.4167,23.730000000000018,81,20,4.26,MU,1697416172
145,karratha,-20.7377,116.8463,31.680000000000007,14,5,9.98,AU,1697416033
146,barranca,-10.75,-77.7667,18.980000000000018,86,80,3.11,PE,1697416174
147,faya-largeau,17.9257,19.1043,28.28000000000003,23,67,6.07,TD,1697416174
148,zheleznogorsk-ilimskiy,56.5768,104.1217,1.8700000000000045,96,100,2.24,RU,1697416175
149,kajaani,64.2273,27.7285,3.0300000000000296,87,100,9.77,FI,1697416176
150,new norfolk,-42.7826,147.0587,13.720000000000027,49,44,3.99,AU,1697416176
151,north bend,43.4065,-124.2243,20.129999999999995,77,0,3.09,US,1697416176
152,laguna,38.421,-121.4238,30.590000000000032,29,0,1.54,US,1697416176
153,ketchikan,55.3422,-131.6461,12.990000000000009,100,100,3.6,US,1697416177
154,oppdal,62.5943,9.6912,-0.4199999999999591,94,100,3.66,NO,1697416178
155,daru,-9.0763,143.2092,26.78000000000003,77,88,5.19,PG,1697416178
156,colonia,50.9333,6.95,7.140000000000043,90,0,0.51,DE,1697416138
157,chateaudun,48.0833,1.3333,6.439999999999998,55,100,3.8,FR,1697416179
158,tual,-5.6667,132.75,26.410000000000025,81,68,7.21,ID,1697416179
159,janeng,-25.4167,25.55,18.80000000000001,87,41,6.08,BW,1697416180
160,malibu,34.005,-118.8101,33.710000000000036,46,0,4.22,US,1697416180
161,koson,39.0375,65.585,7.180000000000007,36,95,0.68,UZ,1697416180
162,palikir - national government center,6.9248,158.1611,31.410000000000025,66,40,3.6,FM,1697416180
163,baihe,22.15,107.2333,21.410000000000025,75,88,0.34,CN,1697416181
164,bambanglipuro,-7.95,110.2833,26.950000000000045,70,69,4.66,ID,1697416181
165,az zubayr,30.3945,47.7011,21.920000000000016,60,0,3.09,IQ,1697416181
166,mendefera,14.8872,38.8153,16.110000000000014,73,16,1.88,ER,1697416182
167,puerto varas,-41.3195,-72.9854,7.960000000000036,81,89,1.66,CL,1697416182
168,nizhniy odes,63.6445,54.856,4.840000000000032,90,77,3.24,RU,1697416182
169,babadag,44.9,28.7167,12.930000000000007,76,75,11.32,RO,1697416182
170,tiksi,71.6872,128.8694,-8.479999999999961,90,100,7.19,RU,1697416183
171,matthew town,20.95,-73.6667,29.200000000000045,67,98,2.14,BS,1697416183
172,hammerfest,70.6634,23.6821,4.25,93,100,8.75,NO,1697416183
173,constantia,44.1833,28.65,13.379999999999995,62,34,7.87,RO,1697416184
174,bangassou,4.7413,22.8184,20.650000000000034,97,100,0.51,CF,1697416184
175,guadalupe y calvo,26.1,-106.9667,14.680000000000007,82,95,1.34,MX,1697416185
176,baoding,38.8511,115.4903,13.830000000000041,54,1,1.97,CN,1697416185
177,bubaque,11.2833,-15.8333,28.200000000000045,81,94,5.55,GW,1697416185
178,arraial do cabo,-22.9661,-42.0278,22.160000000000025,91,94,6.4,BR,1697415994
179,sakassou,7.4546,-5.2926,23.03000000000003,96,100,1.7,CI,1697416186
180,remire-montjoly,4.9167,-52.2667,28.02000000000004,78,0,2.57,GF,1697416186
181,angra do heroismo,38.65,-27.2167,24.340000000000032,93,40,12.07,PT,1697416187
182,nar'yan-mar,67.6713,53.087,0.6200000000000045,87,100,8.94,RU,1697416188
183,porto novo,6.4965,2.6036,26.900000000000034,89,100,2.57,BJ,1697416188
184,yashkul',46.1711,45.3435,11.390000000000043,79,0,4.72,RU,1697416189
185,ribeira grande,38.5167,-28.7,21.54000000000002,90,89,9.39,PT,1697416189
186,cartagena,10.3997,-75.5144,29.79000000000002,79,20,2.57,CO,1697416052
187,poronaysk,49.2167,143.1167,11.270000000000039,75,99,5.86,RU,1697416189
188,opuwo,-18.0607,13.84,19.83000000000004,28,64,1.78,NA,1697416190
189,san patricio,28.017,-97.5169,24.920000000000016,32,0,5.14,US,1697416190
190,kimbe,-5.5502,150.1429,26.04000000000002,84,98,1.22,PG,1697416190
191,ishikawa,26.4233,127.8214,26.180000000000007,53,20,3.6,JP,1697416191
192,al majaridah,19.1236,41.9111,29.27000000000004,45,5,0.92,SA,1697416191
193,alpirsbach,48.3451,8.402,5.6299999999999955,82,51,1.34,DE,1697416191
194,ust'-ilimsk,58.0006,102.6619,4.689999999999998,86,100,2.24,RU,1697416191
195,san blas,21.5167,-105.2667,32.94,87,17,1.35,MX,1697416192
196,tolanaro,-25.0319,46.9987,22.04000000000002,83,75,2.06,MG,1697416192
197,polyarnyy,69.1989,33.4478,5.03000000000003,90,100,10.11,RU,1697416192
198,penonome,8.5167,-80.3667,22.220000000000027,80,100,3.13,PA,1697416193
199,deogarh,21.5333,84.7333,21.840000000000032,68,62,0.33,IN,1697416193
200,la sarre,48.8002,-79.1996,7.600000000000023,79,42,6.14,CA,1697416193
201,invercargill,-46.4,168.35,10.410000000000025,72,100,4.6,NZ,1697416193
202,ravar,31.2656,56.8055,17.460000000000036,32,11,1.32,IR,1697416194
203,cabo san lucas,22.8909,-109.9124,31.450000000000045,74,0,5.14,MX,1697416038
204,hamada,34.8833,132.0833,18.400000000000034,61,68,4.73,JP,1697416195
205,vilyuchinsk,52.9306,158.4028,10.150000000000034,95,100,2.91,RU,1697416195
206,amahai,-3.3333,128.9167,27.730000000000018,79,86,0.77,ID,1697416195
207,fisterra,42.9049,-9.2629,18.900000000000034,87,94,8.23,ES,1697416195
208,hanceville,34.0607,-86.7675,11.920000000000016,54,99,5.14,US,1697416196
209,marble falls,30.5782,-98.2728,20.620000000000005,32,0,3.09,US,1697416196
210,ola,59.5833,151.2833,3.9700000000000273,61,100,2.99,RU,1697416196
211,georgetown,5.4112,100.3354,27.960000000000036,89,20,2.06,MY,1697416130
212,kapa'a,22.0752,-159.319,30.99000000000001,64,75,8.23,US,1697416197
213,iskateley,67.6803,53.1512,0.57000000000005,87,100,8.94,RU,1697416197
214,holualoa,19.6228,-155.9522,27.100000000000023,78,40,4.63,US,1697416197
215,st. john's,47.5649,-52.7093,10.660000000000025,91,75,3.6,CA,1697416132
216,dolores,-36.3132,-57.6792,12.270000000000039,94,0,4.18,AR,1697416198
217,kununurra,-15.7667,128.7333,31.99000000000001,15,42,1.54,AU,1697416198
218,bousso,10.4795,16.7117,24.480000000000018,77,40,2.3,TD,1697416199
219,vernon,50.2581,-119.2691,18.200000000000045,67,71,1.03,CA,1697416199
220,jumla,29.2747,82.1838,6.7000000000000455,86,58,1.71,NP,1697416200
221,cold lake,54.4502,-110.2017,10.970000000000027,62,75,2.57,CA,1697416200
222,tura,25.5198,90.2201,19.680000000000007,84,6,1.59,IN,1697416200
223,fort mcmurray,56.7268,-111.381,10.770000000000039,62,40,2.57,CA,1697416200
224,buka,40.8108,69.1986,8.270000000000039,44,12,1.44,UZ,1697416201
225,aswan,24.0934,32.907,24.02000000000004,32,0,4.74,EG,1697416201
226,lodja,-3.4833,23.4333,21.08000000000004,96,100,0.62,CD,1697416201
227,champoton,19.35,-90.7167,27.910000000000025,81,14,8.92,MX,1697416202
228,manokwari,-0.8667,134.0833,28.660000000000025,70,95,1.91,ID,1697416202
229,amsterdam,52.374,4.8897,8.840000000000032,88,20,2.57,NL,1697415999
230,chunar,25.1333,82.9,24.03000000000003,68,26,1.37,IN,1697416204
231,skovorodino,53.9833,123.9167,1.4399999999999977,47,6,2.61,RU,1697416204
232,vilyuysk,63.7553,121.6247,-5.4599999999999795,82,100,2.24,RU,1697416204
233,zyryanovsk,49.7386,84.2719,3.830000000000041,92,76,1.24,KZ,1697416205
234,santiago,-33.4569,-70.6483,17.700000000000045,54,0,6.17,CL,1697416029
235,aasiaat,68.7098,-52.8699,-5.899999999999977,75,100,3.59,GL,1697416205
236,urumqi,43.801,87.6005,5.53000000000003,81,0,2.0,CN,1697416206
237,uturoa,-16.7333,-151.4333,26.200000000000045,72,14,3.61,PF,1697416206
238,kayangel,8.0823,134.7173,28.160000000000025,77,32,3.98,PW,1697416206
239,baruun-urt,46.6806,113.2792,5.150000000000034,34,9,5.72,MN,1697416207
240,port-vila,-17.7338,168.3219,25.78000000000003,89,75,6.17,VU,1697416207
241,mugia,43.1041,-9.2179,18.980000000000018,87,100,7.68,ES,1697416207
242,kathu,7.9178,98.3332,29.27000000000004,76,100,5.15,TH,1697416208
243,naze,28.3667,129.4833,23.510000000000048,50,0,5.28,JP,1697416208
244,lazaro cardenas,17.9583,-102.2,27.910000000000025,85,100,0.53,MX,1697416208
245,tari,12.4086,4.4914,28.100000000000023,43,100,2.47,NG,1697416209
246,kayenta,36.7278,-110.2546,17.170000000000016,21,0,2.41,US,1697416209
247,kapit,2.0167,112.9333,28.400000000000034,77,47,0.7,MY,1697416209
248,uttaradit,17.6667,100.5,21.590000000000032,96,100,0.53,TH,1697416210
249,sisimiut,66.9395,-53.6735,-3.5299999999999727,69,99,1.83,GL,1697416210
250,kharovsk,59.9642,40.1912,6.850000000000023,79,100,5.0,RU,1697416210
251,grootfontein,-19.5667,18.1167,18.760000000000048,15,100,2.06,NA,1697416211
252,kamennomostskoye,43.7372,43.0514,12.400000000000034,30,13,3.16,RU,1697416211
253,makurazaki,31.2667,130.3167,21.560000000000002,54,0,7.94,JP,1697416211
254,melfort,52.8667,-104.6177,11.07000000000005,50,77,4.63,CA,1697416020
255,aruvankad,11.3667,76.7667,15.120000000000005,88,99,0.37,IN,1697416212
256,franklin,39.9667,-83.0166,11.350000000000023,68,75,4.63,US,1697415914
257,hepo,23.4308,115.8299,23.610000000000014,72,76,1.48,CN,1697416212
258,kavaratti,10.5669,72.642,27.49000000000001,71,77,1.54,IN,1697416213
259,tha maka,13.9,99.7667,25.879999999999995,86,100,3.21,TH,1697416213
260,ayacucho,-13.1583,-74.2239,16.05000000000001,66,14,2.04,PE,1697416213
261,east bethel,45.3194,-93.2025,12.32000000000005,81,0,2.57,US,1697416214
262,nieuw amsterdam,5.8833,-55.0833,28.900000000000034,82,100,5.44,SR,1697416214
263,kargasok,59.0556,80.8572,3.3100000000000023,83,100,4.02,RU,1697416214
264,labytnangi,66.6572,66.4183,0.2300000000000182,99,100,4.15,RU,1697416215
265,sao joao da barra,-21.6403,-41.0511,23.05000000000001,94,100,2.53,BR,1697416027
266,kiunga,-6.1219,141.2906,26.930000000000007,82,97,1.16,PG,1697416215
267,muroto-misakicho,33.2833,134.15,20.460000000000036,58,0,2.54,JP,1697416215
268,kenai,60.5544,-151.2583,9.050000000000011,84,100,5.14,US,1697416216
269,champerico,14.3,-91.9167,26.30000000000001,78,100,1.1,GT,1697416216
270,dwarka,22.2394,68.9678,26.53000000000003,75,0,3.83,IN,1697416216
271,chimoio,-19.1164,33.4833,19.920000000000016,100,75,1.1,MZ,1697416217
272,kinkala,-4.3614,14.7644,23.0,84,100,0.71,CG,1697416217
273,gulariya,28.2333,81.3333,20.600000000000023,76,20,1.42,NP,1697416217
274,shubarshi,48.5872,57.1869,8.590000000000032,72,0,3.1,KZ,1697416218
275,embi,48.8264,58.1442,7.939999999999998,75,0,2.69,KZ,1697416218
276,pedregal,8.3667,-82.4333,27.930000000000007,90,100,3.58,PA,1697416218
277,bluefields,12.0137,-83.7635,26.810000000000002,82,22,0.73,NI,1697416218
278,fort bragg,35.139,-79.006,15.75,73,100,1.54,US,1697416219
279,zabaykal'sk,49.6333,117.3167,4.910000000000025,40,23,3.4,RU,1697416219
280,dudinka,69.4058,86.1778,-6.849999999999966,91,37,3.58,RU,1697416219
281,trenton,40.217,-74.7429,13.110000000000014,76,20,2.57,US,1697416220
282,al kharijah,25.4514,30.5464,21.150000000000034,36,0,3.58,EG,1697416220
283,massawa,15.6097,39.45,31.200000000000045,59,53,3.0,ER,1697416220
284,klyuchi,52.2667,79.1667,3.420000000000016,79,16,2.97,RU,1697416221
285,homer,59.6425,-151.5483,8.760000000000048,89,100,3.6,US,1697416221
286,merritt,50.1123,-120.7942,15.180000000000007,61,100,0.45,CA,1697416221
287,thompson,55.7435,-97.8558,6.090000000000032,87,20,0.0,CA,1697416222
288,luziania,-16.2525,-47.9503,25.83000000000004,43,12,3.69,BR,1697416222
289,udalguri,26.7667,92.1333,21.629999999999995,83,8,1.66,IN,1697416222
290,gizo,-8.103,156.8419,28.900000000000034,74,85,5.34,SB,1697416223
291,mutuali,-14.8706,37.0044,24.360000000000014,76,100,1.21,MZ,1697416223
292,nova vicosa,-17.8919,-39.3719,23.77000000000004,85,3,2.93,BR,1697416223
293,port moresby,-9.4431,147.1797,27.680000000000007,78,40,5.14,PG,1697416224
294,galappo,-4.2667,35.85,18.930000000000007,77,100,1.75,TZ,1697416224
295,vadso,70.0744,29.7487,4.490000000000009,93,97,8.23,NO,1697416224
296,al artawiyah,26.5053,45.3444,24.470000000000027,17,0,1.57,SA,1697416225
297,lorengau,-2.0226,147.2712,29.170000000000016,71,100,3.18,PG,1697416225
298,crane,31.3974,-102.3501,17.360000000000014,35,0,4.42,US,1697416225
299,marshall,34.3834,-86.3333,11.680000000000007,86,75,4.12,US,1697416226
300,sretensk,52.2453,117.7093,0.4200000000000159,42,100,0.89,RU,1697416226
301,east london,-33.0153,27.9116,17.680000000000007,89,100,10.44,ZA,1697416226
302,aldan,58.6031,125.3894,-8.779999999999973,98,11,0.89,RU,1697416226
303,tromso,69.6496,18.957,4.010000000000048,81,75,6.17,NO,1697416041
304,keflavik,64.0049,-22.5624,7.9500000000000455,93,75,6.17,IS,1697416227
305,novaya igirma,57.1334,103.9112,3.1100000000000136,97,100,2.17,RU,1697416227
306,maragogi,-9.0122,-35.2225,24.400000000000034,80,43,5.25,BR,1697416228
307,taghazout,30.5426,-9.7112,22.430000000000007,60,29,1.47,MA,1697416228
308,bafq,31.6128,55.4107,18.390000000000043,31,40,0.74,IR,1697416228
309,trnava,48.3774,17.5872,8.450000000000045,72,2,4.98,SK,1697416228
310,ebolowa,2.9,11.15,19.980000000000018,99,100,0.98,CM,1697416229
311,mezica,46.5214,14.8544,5.7900000000000205,99,18,0.91,SI,1697416229
312,la passe,45.5549,-0.8967,10.129999999999995,59,100,5.96,FR,1697416230
313,laojunmiao,39.8333,97.7333,6.740000000000009,40,87,1.02,CN,1697416230
314,padangsidempuan,1.3667,99.2667,23.0,96,100,0.77,ID,1697416230
315,tevriz,57.509,72.4042,4.910000000000025,76,100,3.75,RU,1697416230
316,novyy urgal,51.0736,132.5642,0.5500000000000114,62,97,2.43,RU,1697416231
317,chibougamau,49.9168,-74.3659,9.79000000000002,76,0,3.09,CA,1697416231
318,la'ie,21.6477,-157.9253,30.980000000000018,70,100,3.87,US,1697416232
319,kristiansund,63.1115,7.732,6.360000000000014,70,75,8.23,NO,1697416232
320,louisville,38.2542,-85.7594,13.010000000000048,63,100,4.12,US,1697416110
321,mili,6.0815,171.735,28.420000000000016,72,98,4.28,MH,1697416232
322,kruisfontein,-34.0033,24.7314,14.770000000000039,95,95,3.63,ZA,1697416233
323,okhotsk,59.3833,143.3,2.2900000000000205,76,100,4.55,RU,1697416233
324,grand falls-windsor,48.9332,-55.6649,8.060000000000002,90,100,2.12,CA,1697416032
325,kattivakkam,13.2167,80.3167,27.82000000000005,87,100,2.38,IN,1697416234
326,formosa,-26.1775,-58.1781,29.99000000000001,72,0,3.6,AR,1697416234
327,turbat,26.0023,63.044,26.129999999999995,79,61,1.28,PK,1697416235
328,emerald,-23.5333,148.1667,27.410000000000025,41,25,3.29,AU,1697416051
329,vallenar,-28.5708,-70.7581,18.110000000000014,47,98,1.66,CL,1697416235
330,lethem,3.3803,-59.7968,28.55000000000001,62,100,0.86,GY,1697416235
331,namibe,-15.1961,12.1522,17.49000000000001,80,12,2.67,AO,1697416236
332,galliano,29.4422,-90.2992,18.33000000000004,59,0,2.06,US,1697416236
333,ciudad lazaro cardenas,17.9583,-102.2,27.910000000000025,85,100,0.53,MX,1697416236
334,yatou,37.15,122.3833,16.49000000000001,33,0,7.57,CN,1697416237
335,petropavlovsk-kamchatsky,53.0452,158.6483,9.330000000000041,88,75,3.0,RU,1697416237
336,santa terezinha,-29.9002,-50.0904,18.24000000000001,90,91,9.29,BR,1697416237
337,kintinku,-5.8833,35.2333,24.470000000000027,54,99,2.61,TZ,1697416237
338,aykhal,66.0,111.5,-7.17999999999995,85,100,2.24,RU,1697416238
339,mount isa,-20.7333,139.5,29.870000000000005,16,0,8.23,AU,1697416230
340,kalmunai,7.4167,81.8167,25.680000000000007,86,31,2.59,LK,1697416238
341,pula,44.8683,13.8481,13.310000000000002,58,0,8.23,HR,1697416238
342,midvagur,62.0511,-7.1939,9.460000000000036,93,100,4.12,FO,1697416239
343,itoman,26.1247,127.6694,26.210000000000036,53,20,5.66,JP,1697416239
344,prince rupert,54.3161,-130.3201,14.050000000000011,84,40,9.26,CA,1697416239
345,ocean shores,46.9737,-124.1563,16.120000000000005,91,75,5.66,US,1697416240
346,verkhnevilyuysk,63.4453,120.3167,-7.25,81,100,2.68,RU,1697416240
347,lucapa,-8.4192,20.7447,18.55000000000001,85,100,0.87,AO,1697416240
348,las heras,-46.5419,-68.9359,13.04000000000002,34,98,5.55,AR,1697416235
349,leeton,-34.5667,146.4,16.610000000000014,48,93,9.8,AU,1697416241
350,alofi,-19.0595,-169.9187,26.939999999999998,61,14,8.23,NU,1697416241
351,faranah,10.0404,-10.7434,22.04000000000002,96,100,1.84,GN,1697416241
352,bakchar,57.0186,82.0711,2.32000000000005,91,97,2.14,RU,1697416242
353,lashio,22.9333,97.75,18.810000000000002,79,5,0.51,MM,1697416242
354,north bay,46.3168,-79.4663,8.860000000000014,94,100,4.12,CA,1697416214
355,cole harbour,44.6724,-63.4751,11.710000000000036,90,100,4.63,CA,1697416242
356,ingraj bazar,25.0,88.15,23.360000000000014,78,51,2.11,IN,1697416243
357,kokopo,-4.352,152.2633,29.189999999999998,67,100,3.82,PG,1697416243
358,gadzhiyevo,69.2551,33.3362,5.050000000000011,91,98,11.15,RU,1697416243
359,veinticinco de mayo,-35.4323,-60.1727,17.210000000000036,59,2,1.34,AR,1697416244
360,revda,56.801,59.9303,7.900000000000034,91,100,5.87,RU,1697416244
361,antalaha,-14.9003,50.2788,21.680000000000007,94,55,1.66,MG,1697416244
362,qui nhon,13.7667,109.2333,25.27000000000004,88,100,1.89,VN,1697416244
363,vyazemskiy,47.5378,134.7525,3.340000000000032,53,93,6.57,RU,1697416245
364,touros,-5.1989,-35.4608,25.33000000000004,81,100,8.25,BR,1697416245
365,san sebastian de la gomera,28.0916,-17.1133,28.200000000000045,29,0,0.0,ES,1697416026
366,kingston,17.997,-76.7936,29.53000000000003,89,20,2.57,JM,1697415992
367,hirara,24.8,125.2833,26.920000000000016,53,75,6.17,JP,1697416246
368,iwye,53.9299,25.7727,5.080000000000041,71,39,5.75,BY,1697416246
369,fortuna,40.5982,-124.1573,21.629999999999995,81,0,3.09,US,1697416246
370,mount gambier,-37.8333,140.7667,12.590000000000032,51,97,5.9,AU,1697416245
371,dunedin,-45.8742,170.5036,15.600000000000023,37,100,2.51,NZ,1697416247
372,vizinga,61.0749,50.1031,7.189999999999998,87,100,3.91,RU,1697416247
373,celestun,20.8667,-90.4,26.470000000000027,79,100,7.87,MX,1697416247
374,wagar,16.1525,36.2032,28.640000000000043,64,64,3.19,SD,1697416248
375,dajabon,19.5488,-71.7083,27.210000000000036,71,100,0.78,DO,1697416248
376,pergine valsugana,46.065,11.238,11.300000000000011,45,0,3.09,IT,1697416248
377,flying fish cove,-10.4217,105.6791,25.82000000000005,94,100,4.63,CX,1697416249
378,kapuskasing,49.4169,-82.4331,6.050000000000011,87,100,4.63,CA,1697416249
379,rio grande,-32.035,-52.0986,19.060000000000002,87,100,9.12,BR,1697416249
380,polignano a mare,40.9959,17.2159,23.07000000000005,75,100,8.87,IT,1697416250
381,binka,21.0333,83.8,21.439999999999998,77,0,0.92,IN,1697416250
382,ujae,8.9322,165.7642,28.700000000000045,76,14,5.4,MH,1697416250
383,zhaobaoshan,29.9695,121.6875,19.010000000000048,59,0,1.93,CN,1697416251
384,westport,41.1415,-73.3579,13.430000000000007,82,0,1.54,US,1697416251
385,deschutes river woods,43.9915,-121.3584,20.379999999999995,55,0,4.63,US,1697416251
386,puerto leguizamo,-0.1934,-74.7819,21.450000000000045,97,60,0.8,CO,1697416251
387,charcas,23.1333,-101.1167,17.350000000000023,69,74,6.49,MX,1697416252
388,elkins,38.9259,-79.8467,8.400000000000034,92,100,1.54,US,1697416221
389,brush,40.2589,-103.6238,13.890000000000043,50,6,4.12,US,1697416252
390,barkot,30.8167,78.2,12.78000000000003,68,100,2.03,IN,1697416253
391,fu'an,27.0892,119.6453,22.27000000000004,74,0,0.9,CN,1697416253
392,bucerias,20.75,-105.3333,29.99000000000001,79,100,1.54,MX,1697416076
393,parauapebas,-6.0675,-49.9022,24.110000000000014,80,3,1.09,BR,1697416253
394,ancud,-41.8697,-73.8203,7.090000000000032,90,8,2.57,CL,1697416254
395,murghob,38.1702,73.9667,-0.8999999999999773,50,100,1.45,TJ,1697416254
396,aktau,43.65,51.2,9.32000000000005,41,0,9.04,KZ,1697416254
397,otofuke,42.9917,143.2003,14.53000000000003,73,0,1.89,JP,1697416254
398,praia da vitoria,38.7333,-27.0667,24.140000000000043,73,40,12.84,PT,1697416255
399,contamana,-7.3333,-75.0167,25.610000000000014,67,98,1.11,PE,1697416255
400,guerrero negro,27.9769,-114.0611,22.150000000000034,69,0,5.92,MX,1697416255
401,golfito,8.639,-83.166,24.629999999999995,94,100,1.03,CR,1697416122
402,khandyga,62.6667,135.6,-11.489999999999952,90,80,0.96,RU,1697416256
403,brokopondo,4.75,-55.1667,27.689999999999998,70,100,5.39,SR,1697416256
404,nicoya,10.1483,-85.452,24.090000000000032,96,100,0.38,CR,1697416113
405,koryukivka,51.7688,32.2481,8.53000000000003,71,100,1.94,UA,1697416257
406,kyzyl,51.7,94.45,6.680000000000007,77,100,8.94,RU,1697416257
407,lib,8.3122,167.3766,28.58000000000004,74,51,4.45,MH,1697416257
408,troitsko-pechorsk,62.7084,56.1964,4.830000000000041,98,100,2.68,RU,1697416257
409,zaragoza,41.6561,-0.8773,18.900000000000034,75,75,4.12,ES,1697416258
410,chinde,26.8418,88.0763,14.830000000000041,86,24,1.75,NP,1697416258
411,del rio,29.3627,-100.8968,28.060000000000002,23,0,5.66,US,1697416258
412,chita,52.0333,113.55,-2.0600000000000023,58,95,3.0,RU,1697416202
413,afaahiti,-17.75,-149.2833,26.930000000000007,78,81,3.83,PF,1697416259
414,whakatane,-37.9585,176.9854,21.05000000000001,56,99,3.87,NZ,1697416259
415,fort campbell north,36.6543,-87.4606,11.980000000000018,60,75,3.09,US,1697416028
416,el calafate,-50.3408,-72.2768,5.560000000000002,73,27,4.54,AR,1697416260
417,bad munstereifel,50.55,6.7667,3.4700000000000273,93,8,1.09,DE,1697416260
418,pariaman,-0.619,100.12,25.03000000000003,82,59,1.46,ID,1697416260
419,torghay,49.6339,63.4981,11.100000000000023,69,64,4.05,KZ,1697416261
420,soio,-6.1349,12.3689,24.840000000000032,84,66,3.42,AO,1697416261
421,taichung,24.1469,120.6839,26.379999999999995,71,75,2.57,TW,1697416261
422,liberal,37.0431,-100.921,14.080000000000041,47,0,2.57,US,1697416036
423,st. thomas,42.7736,-81.1804,7.6299999999999955,81,100,4.77,CA,1697416240
424,nieuw nickerie,5.95,-56.9833,28.02000000000004,76,100,5.98,SR,1697416262
425,akjoujt,19.6969,-14.4164,30.24000000000001,14,0,4.37,MR,1697416262
426,talcahuano,-36.7167,-73.1167,11.82000000000005,66,20,8.23,CL,1697416263
427,ugoofaaru,5.6667,73.0,28.08000000000004,72,100,6.06,MV,1697416263
428,eaglehawk,-36.7333,144.25,11.310000000000002,63,73,3.58,AU,1697416264
429,mejit,10.2753,170.8646,28.08000000000004,76,97,4.77,MH,1697416264
430,nadym,65.5333,72.5167,0.26000000000004775,77,100,6.1,RU,1697416264
431,busan,35.1028,129.0403,15.990000000000009,72,0,2.06,KR,1697416265
432,ruteng,-8.6136,120.4721,25.140000000000043,40,0,1.45,ID,1697416265
433,polazna,58.2946,56.4055,11.82000000000005,92,100,4.74,RU,1697416265
434,labrador city,52.9463,-66.9114,2.9500000000000455,93,100,7.72,CA,1697416266
435,plastun,44.7561,136.2939,7.270000000000039,61,28,3.13,RU,1697416266
436,saint-pierre,-21.3393,55.4781,21.82000000000005,73,75,2.06,RE,1697416266
437,saint-francois,46.4154,3.9054,6.490000000000009,93,0,1.03,FR,1697416265
438,soto la marina,23.7667,-98.2167,23.160000000000025,41,83,1.98,MX,1697416267
439,hillvue,-31.1244,150.915,25.950000000000045,24,75,6.17,AU,1697416267
440,ksar el kebir,35.0017,-5.9053,20.129999999999995,70,10,0.33,MA,1697416267
441,anyang,36.0994,114.3289,17.32000000000005,53,0,4.92,CN,1697416268
442,nalundan,9.75,123.0667,28.200000000000045,67,35,0.74,PH,1697416268
443,papao,-17.75,-149.55,27.82000000000005,79,76,4.97,PF,1697416268
444,camayenne,9.535,-13.6878,27.05000000000001,89,75,4.12,GN,1697416268
445,mar del plata,-38.0023,-57.5575,13.939999999999998,87,0,2.68,AR,1697416269
446,wau,7.7029,27.9953,21.660000000000025,94,100,3.69,SS,1697416269
447,sechura,-5.5569,-80.8222,21.33000000000004,75,21,6.67,PE,1697416269
448,poli,-3.3333,36.8,16.650000000000034,89,59,2.06,TZ,1697416270
449,campo verde,-20.4167,-54.0667,28.140000000000043,50,100,1.74,BR,1697416270
450,camana,-16.6228,-72.7111,18.710000000000036,87,28,2.48,PE,1697416270
451,namsos,64.4662,11.4957,5.03000000000003,70,75,2.57,NO,1697416271
452,pervomaysk,48.0443,30.8507,10.460000000000036,80,100,9.12,UA,1697416271
453,lautoka,-17.6167,177.4667,28.920000000000016,61,40,4.63,FJ,1697416187
454,nova xavantina,-14.6667,-52.35,29.05000000000001,47,98,1.15,BR,1697416271
455,kailua-kona,19.6406,-155.9956,29.170000000000016,77,40,4.63,US,1697416272
456,saint joseph,39.7686,-94.8466,10.78000000000003,74,100,5.81,US,1697416272
457,san luis de la loma,17.2706,-100.8939,26.910000000000025,86,100,0.46,MX,1697416272
458,baotou,40.6522,109.8222,12.850000000000023,36,31,2.72,CN,1697416273
459,sinjai,-5.1241,120.253,30.629999999999995,56,9,4.08,ID,1697416273
460,abu dhabi,24.4667,54.3667,31.08000000000004,60,0,1.03,AE,1697416149
461,livingstone,-17.8419,25.8543,24.02000000000004,61,100,2.07,ZM,1697416273
462,tingi,-11.3,35.0333,18.57000000000005,87,99,2.66,TZ,1697416274
463,puerto baquerizo moreno,-0.9,-89.6,23.600000000000023,84,86,4.62,EC,1697416207
464,saint-philippe,-21.3585,55.7679,21.77000000000004,84,35,1.44,RE,1697416274
465,rosalie,15.3667,-61.2667,26.99000000000001,78,19,2.83,DM,1697416275
466,cuyo,10.8525,121.0086,28.620000000000005,72,97,3.01,PH,1697416275
467,oroqen zizhiqi,50.5667,123.7167,3.8700000000000045,34,15,5.11,CN,1697416275
468,umluj,25.0213,37.2685,26.430000000000007,49,0,4.74,SA,1697416275
469,arklow,52.7931,-6.1414,7.060000000000002,67,100,3.22,IE,1697416276
470,portage la prairie,49.9728,-98.2926,8.830000000000041,56,5,1.09,CA,1697416276
471,spassk-dal'niy,44.5978,132.8211,7.5,35,1,8.41,RU,1697416276
472,haiku-pauwela,20.9219,-156.3051,28.430000000000007,69,40,11.83,US,1697416277
473,nowy dwor gdanski,54.2131,19.1177,8.920000000000016,83,86,4.47,PL,1697416277
474,canyon,34.9803,-101.9188,18.890000000000043,40,0,2.24,US,1697416277
475,lishui,28.4604,119.9103,21.660000000000025,68,0,0.77,CN,1697416277
476,vila velha,-20.3297,-40.2925,22.970000000000027,99,100,2.06,BR,1697416025
477,panacan,9.2463,118.4082,28.860000000000014,74,69,2.34,PH,1697416278
478,thurso,58.5927,-3.5259,8.810000000000002,82,100,7.02,GB,1697416052
479,douglas,41.3,-96.167,9.960000000000036,73,100,3.09,US,1697416279
480,quillacollo,-17.4,-66.2833,22.04000000000002,35,9,3.09,BO,1697416280
481,acarau,-2.8856,-40.12,26.129999999999995,83,51,7.69,BR,1697416280
482,floro,61.5996,5.0328,5.980000000000018,61,100,8.23,NO,1697416280
483,bani mazar,28.5036,30.8004,21.05000000000001,64,0,2.79,EG,1697416281
484,brookings,44.3114,-96.7984,8.939999999999998,84,0,3.6,US,1697416281
485,lagoa,39.05,-27.9833,20.78000000000003,87,100,20.0,PT,1697416281
486,baiti,13.745,-14.7482,26.200000000000045,66,100,3.37,SN,1697416282
487,sitangkai,4.6628,119.3928,28.379999999999995,71,98,2.35,PH,1697416282
488,al jawf,29.5,38.75,17.27000000000004,59,0,3.17,SA,1697416282
489,robertsport,6.7533,-11.3686,26.160000000000025,85,100,2.57,LR,1697416283
490,gebeit,21.0667,36.3167,21.79000000000002,64,0,1.83,SD,1697416283
491,bashanet,-4.2333,35.4167,13.850000000000023,86,100,2.58,TZ,1697416283
492,regina,50.4501,-104.6178,12.990000000000009,49,75,4.63,CA,1697416199
493,hithadhoo,-0.6,73.0833,27.49000000000001,79,4,8.38,MV,1697416284
494,corner brook,48.9667,-57.9484,9.090000000000032,93,100,1.43,CA,1697416208
495,blackwater,-23.5833,148.8833,28.720000000000027,53,9,3.46,AU,1697416284
496,akureyri,65.6835,-18.0878,3.9600000000000364,87,75,0.0,IS,1697416285
497,mogadishu,2.0371,45.3438,26.07000000000005,85,43,4.88,SO,1697416153
498,najaf,31.9985,44.3398,25.27000000000004,30,3,4.72,IQ,1697416285
499,tsiombe,-25.3,45.4833,19.129999999999995,85,100,1.17,MG,1697416285
500,itaituba,-4.2761,-55.9836,26.74000000000001,66,40,1.05,BR,1697416067
501,boryeong,36.3493,126.5977,17.980000000000018,48,0,5.55,KR,1697416286
502,pauini,-7.7136,-66.9764,24.82000000000005,86,99,0.59,BR,1697416286
503,kuta,-8.7233,115.1723,27.970000000000027,83,40,4.12,ID,1697416287
504,blythe,33.6103,-114.5964,35.25,10,0,3.09,US,1697416287
505,sakakah,29.9697,40.2064,19.760000000000048,49,0,2.65,SA,1697416287
506,sidrolandia,-20.9319,-54.9614,25.53000000000003,65,80,2.75,BR,1697416288
507,morshansk,53.4435,41.8107,10.07000000000005,58,60,3.36,RU,1697416288
508,siwa oasis,29.2041,25.5195,22.07000000000005,44,0,2.71,EG,1697416288
509,ouallam,14.3188,2.0866,30.920000000000016,21,5,3.4,NE,1697416289
510,okondja,-0.6549,13.6753,21.57000000000005,98,100,0.87,GA,1697416289
511,sao felix do xingu,-6.6447,-51.995,24.180000000000007,78,1,1.03,BR,1697416289
512,lagdo,9.05,13.7333,23.58000000000004,79,99,0.89,CM,1697416289
513,undurkhaan,47.3194,110.6556,6.240000000000009,34,8,6.1,MN,1697416290
514,chudniv,50.052,28.1175,6.170000000000016,79,100,3.22,UA,1697416290
515,aqsay,51.1678,52.995,9.0,82,6,4.5,KZ,1697416290
516,sinan,34.8262,126.1086,18.060000000000002,59,16,8.39,KR,1697416291
517,eilat,29.5581,34.9482,22.910000000000025,53,0,2.06,IL,1697416292
518,broome,42.2506,-75.833,8.720000000000027,93,100,4.12,US,1697416292
519,okakarara,-20.5833,17.4333,16.920000000000016,18,71,3.4,NA,1697416292
520,sao vicente,-23.9631,-46.3919,22.370000000000005,26,25,0.89,BR,1697416224
521,ulsteinvik,62.3432,5.8487,7.090000000000032,77,100,3.58,NO,1697416135
522,tateyama,34.9833,139.8667,20.79000000000002,60,5,4.7,JP,1697416293
523,mont-laurier,46.5501,-75.4993,10.79000000000002,90,100,3.62,CA,1697416293
524,awjilah,29.1081,21.2869,20.05000000000001,62,0,1.84,LY,1697416293
525,novodvinsk,64.4165,40.8122,3.7700000000000387,78,100,5.59,RU,1697416294
526,baneh,35.9975,45.8853,13.54000000000002,48,0,3.51,IR,1697416294
527,leh,34.1667,77.5833,2.0500000000000114,57,100,1.24,IN,1697416294
528,lillehammer,61.1146,10.4674,-0.18999999999999773,86,15,1.96,NO,1697416295
529,vanino,49.0869,140.2543,7.740000000000009,91,100,3.76,RU,1697416295
530,minab,27.1467,57.0801,27.510000000000048,62,0,1.18,IR,1697416295
531,manacapuru,-3.2997,-60.6206,28.470000000000027,57,0,2.08,BR,1697416295
532,linhares,-19.3911,-40.0722,21.930000000000007,96,18,1.23,BR,1697416296
533,martin,27.0837,-80.4164,26.640000000000043,72,9,0.45,US,1697416296
534,griffith,41.5284,-87.4237,12.270000000000039,70,100,3.09,US,1697416035
535,madan,41.5,24.95,12.080000000000041,69,17,2.17,BG,1697416297
536,margate,51.3813,1.3862,6.610000000000014,60,97,2.05,GB,1697416297
537,buala,-8.145,159.5921,29.650000000000034,70,100,1.1,SB,1697416297
538,brazzaville,-4.2658,15.2832,26.170000000000016,78,100,1.03,CG,1697416297
539,evergreen,39.6333,-105.3172,13.560000000000002,48,19,0.45,US,1697416027
540,severo-yeniseyskiy,60.3725,93.0408,0.8799999999999955,90,100,4.02,RU,1697416298
541,callaway,30.153,-85.5699,17.170000000000016,71,100,6.17,US,1697416298
542,villa gesell,-37.2639,-56.973,13.200000000000045,85,2,8.0,AR,1697416298
543,vanimo,-2.6741,141.3028,29.160000000000025,72,50,2.25,PG,1697416299
544,bonthe,7.5264,-12.505,26.29000000000002,86,100,1.49,SL,1697416299
545,mournies,35.4764,24.0092,22.129999999999995,73,0,3.92,GR,1697416299
546,weno,7.4515,151.8468,28.970000000000027,84,100,4.63,FM,1697416300
547,bochum,51.4833,7.2167,6.400000000000034,84,13,0.45,DE,1697416300
548,bel ombre,-4.6167,55.4167,26.910000000000025,83,40,5.66,SC,1697416300
549,darwin,-12.4611,130.8418,31.99000000000001,37,0,2.57,AU,1697416024
550,savanna-la-mar,18.219,-78.1332,28.29000000000002,82,90,0.68,JM,1697416301
551,bata,1.8639,9.7658,25.379999999999995,87,100,2.06,GQ,1697416301
552,amga,60.8953,131.9608,-7.229999999999961,70,11,0.89,RU,1697416302
553,mount pearl,47.5166,-52.7813,10.189999999999998,91,75,3.6,CA,1697416302
554,meraux,29.933,-89.9498,19.99000000000001,56,100,8.23,US,1697416302
555,as sulayyil,20.4607,45.5779,26.140000000000043,19,1,2.47,SA,1697416302
556,vila do maio,15.1333,-23.2167,28.439999999999998,73,96,5.68,CV,1697416303
557,skowhegan,44.7651,-69.7192,11.650000000000034,93,100,3.46,US,1697416301
558,pyhajarvi,67.0701,27.2176,0.4600000000000364,100,100,2.18,FI,1697416303
559,sola,-13.8833,167.55,26.260000000000048,83,100,7.04,VU,1697416304
560,yuzhno-kurilsk,44.0306,145.8556,14.100000000000023,69,100,4.02,RU,1697416304
561,agat village,13.3886,144.6585,30.760000000000048,79,20,3.6,GU,1697416304
562,fort st. john,56.2499,-120.8529,12.939999999999998,58,75,3.6,CA,1697416305
563,ardakan,32.31,54.0175,18.260000000000048,33,72,1.24,IR,1697416305
564,acapulco de juarez,16.8634,-99.8901,28.900000000000034,84,100,1.03,MX,1697416305
565,port blair,11.6667,92.75,25.02000000000004,100,40,1.03,IN,1697416306
566,tanjung pinang,0.9167,104.45,27.02000000000004,72,78,5.32,ID,1697416306
567,ambodifotatra,-16.9833,49.85,23.82000000000005,85,19,2.84,MG,1697416306
568,miquelon,47.0975,-56.3814,13.0,85,100,7.58,PM,1697416306
569,minuyan,10.5137,123.1049,27.29000000000002,71,9,0.41,PH,1697416307
570,tabou,4.423,-7.3528,24.210000000000036,93,100,2.62,CI,1697416307
571,koknese,56.65,25.4333,3.920000000000016,97,60,1.77,LV,1697416307
572,richards bay,-28.783,32.0377,18.890000000000043,89,100,3.07,ZA,1697416308
573,garachico,28.7781,-17.7646,25.82000000000005,69,0,2.57,ES,1697416308
574,esquina,-30.0144,-59.5272,21.25,55,100,2.71,AR,1697416308
575,tsiroanomandidy,-18.7667,46.0333,21.52000000000004,87,73,1.08,MG,1697416309
576,inhambane,-23.865,35.3833,20.620000000000005,81,100,2.59,MZ,1697416309
577,shakiso,5.75,38.9167,13.650000000000034,98,32,1.64,ET,1697416309
578,vredendal,-31.6683,18.5012,15.010000000000048,87,0,1.21,ZA,1697416309
